PARCELID,FEDERAL_ID,STATE_ID,NAME,Population,ADDRESS,CITY,ZIPCODE,COUNTY,PHONE,TYPE,OWNER,OPERATING,OP_CLASS,YR_BUILT,FSOURCE,DATASOURCE,PROGRAMS,GRADES,LOW_GRADE,HIGH_GRADE,PRINCIPAL,ENROLLMENT,TEACHERS,STDTCH_RT,MIGRNT_STD,TITLE1SCHO,MAGNETINFO,COMMENTS,FREE_LUNCH,REDUCED_LU,FISH_FAC1,FISH_FAC2,BBSERVICE,BBPROVIDER,BBSPEED,DSTREAMSPD,FDOE_MSID,NCES_PUB,NCES_PRIV,FDOE_PRV,LAT_DD,LONG_DD,MGRS,GCID,ACRES,DESCRIPT,FLAG,UPDATE_DAY,FGDLAQDATE,AUTOID,AGELO,AGEHI,n
14571-000-000,451079,NA,ACADEMY FOR FIVE ELEMENT ACUPUNCTURE,59,305 SE 2ND AVE,GAINESVILLE,32601,ALACHUA,NA,COLLEGE/UNIVERSITY,"ACADEMY FOR FIVE ELEMENT, ACUP",PRIVATE,PRIVATE,1978,GEOPLAN,NCES 2014-2015 COLLEGE,NA,COLLEGE,COLLEGE,COLLEGE,NA,71,0,0,0,NA,NO INFORMATION AVAILABLE,NA,0,0,0,0,NA,NA,NA,0,NA,NA,NA,NA,29.65006734,-82.32202285,17RLN7204380741,6608,0.7930453,ACADEMY FOR FIVE ELEMENT ACUPUNCTURE,V,3/29/2016,9/15/2017,6776,19,35,1
4.24326E+14,412173,NA,ACADEMY FOR NURSING AND HEALTH OCCUPATIONS,356,5154 OKEECHOBEE BLVD STE 201,WEST PALM BEACH,33417,PALM BEACH,NA,COLLEGE/UNIVERSITY,BIGGIE INVESTMENTS CENTURY PAR,PRIVATE,PRIVATE,1982,GEOPLAN,NCES 2014-2015 COLLEGE,NA,COLLEGE,COLLEGE,COLLEGE,NA,424,0,0,0,NA,NO INFORMATION AVAILABLE,NA,0,0,0,0,NA,NA,NA,0,NA,NA,NA,NA,26.70650077,-80.1215213,17RNK8738654229,6609,1.47774348,ACADEMY FOR NURSING AND HEALTH OCCUPATIONS,V,3/29/2016,9/15/2017,6777,19,35,1
1.72529E+17,NA,NA,ACADEMY OF CAREER TRAINNIG,30,3501 W VINE ST SUITE 111,KISSIMMEE,34741,OSCEOLA,407-943-877,COLLEGE/UNIVERSITY,LA MIRADA-SCHIPPERS LLC,PRIVATE,PRIVATE,1986,GEOPLAN,GEOPLAN,NA,COLLEGE,COLLEGE,COLLEGE,NA,0,0,0,0,NA,NO INFORMATION AVAILABLE,NA,0,0,0,0,U,NA,NA,0,NA,5/16/2012,NA,NA,28.30608797,-81.43941014,17RMM5691931188,5585,5.48784953,ACADEMY OF CAREER TRAINNIG,V,5/14/2012,9/15/2017,5448,19,35,1
3.05005E+12,439969,NA,ACCUPUNCTURE MASSAGE COLLEGE,37,10506 N KENDALL DRIVE,MIAMI,33176,MIAMI-DADE,NA,COLLEGE/UNIVERSITY,SVF KENDALL MIAMI LLC,PRIVATE,PRIVATE,1971,GEOPLAN,NCES 2014-2015 COLLEGE,NA,COLLEGE,COLLEGE,COLLEGE,NA,158,0,0,0,NA,NO INFORMATION AVAILABLE,NA,0,0,0,0,NA,NA,NA,0,NA,NA,NA,NA,25.68614308,-80.36415263,17RNJ6380341080,6612,1.4914191,ACCUPUNCTURE MASSAGE COLLEGE,V,3/29/2016,9/15/2017,6780,19,35,1
4.30021E+11,444334,NA,ADVANCE SCIENCE INSTITUTE,69,3750 W 12 AVE,HIALEAH,33012,MIAMI-DADE,NA,COLLEGE/UNIVERSITY,CAYON FAMILY LTD PRTNRSHP NO 2,PRIVATE,PRIVATE,1984,GEOPLAN,NCES 2015-2016 COLLEGE,NA,COLLEGE,COLLEGE,COLLEGE,NA,0,0,0,0,NA,NA,NA,0,0,0,0,NA,NA,NA,0,NA,NA,NA,NA,25.85563249,-80.30771583,17RNJ6936859879,8564,0.66861076,ADVANCE SCIENCE INSTITUTE,V,4/17/2017,9/15/2017,8503,19,35,1
3.0313E+12,383172,NA,ADVANCED TECHNICAL CENTERS,42,5600 NW 36 STREET,MIAMI,33166,MIAMI-DADE,NA,COLLEGE/UNIVERSITY,MIAMI-DADE COUNTY,PRIVATE,PRIVATE,2007,GEOPLAN,NCES 2014-2015 COLLEGE,NA,COLLEGE,COLLEGE,COLLEGE,NA,31,0,0,0,NA,NO INFORMATION AVAILABLE,NA,0,0,0,0,NA,NA,NA,0,NA,NA,NA,NA,25.80676032,-80.28712606,17RNJ7146054478,6610,12.54068965,ADVANCED TECHNICAL CENTERS,V,3/29/2016,9/15/2017,6778,19,35,3
2.92213E+14,133872,NA,ADVENTIST UNIVERSITY OF HEALTH SCIENCES,1809,671 WINYAH DRIVE,ORLANDO,32803,ORANGE,407-303-7742,COLLEGE/UNIVERSITY,ADVENTIST HEALTH SYSTEM/SUNBEL,PRIVATE,PRIVATE,2008,GEOPLAN,GEOPLAN,NA,COLLEGE,COLLEGE,COLLEGE,NA,2736,0,0,0,NA,NO INFORMATION AVAILABLE,NA,0,0,0,0,U,NA,NA,0,NA,NA,NA,NA,28.57609823,-81.36779278,17RMM6403261078,5591,9.40222554,ADVENTIST UNIVERSITY OF HEALTH SCIENCES,V,3/29/2016,9/15/2017,5454,19,35,1
6.20313E+15,429012,NA,AEROSIM FLIGHT ACADEMY,302,2700 FLIGHT LINE AVE,SANFORD,32773,SEMINOLE,407-330-7020,COLLEGE/UNIVERSITY,SANFORD ARPRT AUTH/CITY SANFRD,PRIVATE,PRIVATE,1963,GEOPLAN,GEOPLAN,NA,COLLEGE,COLLEGE,COLLEGE,NA,44,0,0,0,NA,NO INFORMATION AVAILABLE,NA,0,0,0,0,U,NA,NA,0,NA,NA,NA,NA,28.77861177,-81.25146898,17RMM7545583484,5607,3.91007061,AEROSIM FLIGHT ACADEMY,V,5/14/2012,9/15/2017,5470,19,35,1
1.32311E+11,134811,NA,AI MIAMI INTERNATIONAL UNIVERSITY OF ART AND DESIGN,758,1501 BISCAYNE BOULEVARD,MIAMI,33132,MIAMI-DADE,800-225-9023,COLLEGE/UNIVERSITY,REFERENCE ONLY,PRIVATE,PRIVATE,0,GEOPLAN,GEOPLAN,NA,COLLEGE,COLLEGE,COLLEGE,NA,4029,0,0,0,NA,NO INFORMATION AVAILABLE,NA,0,0,0,0,U,NA,NA,0,NA,5/16/2012,NA,NA,25.78992356,-80.18861104,17RNJ8134752670,5676,10.89691189,AI MIAMI INTERNATIONAL UNIVERSITY OF ART AND DESIGN,V,5/14/2012,9/15/2017,5538,19,35,3
4.2026E+11,444370,NA,AMERICAN ADVANCED TECHNICIANS INSTITUTE,68,6801 W 20TH ST,HIALEAH,33014,MIAMI-DADE,NA,COLLEGE/UNIVERSITY,AMERICAN ADVANCED TECH INST CO,PRIVATE,PRIVATE,1982,GEOPLAN,NCES 2014-2015 COLLEGE,NA,COLLEGE,COLLEGE,COLLEGE,NA,124,0,0,0,NA,NO INFORMATION AVAILABLE,NA,0,0,0,0,NA,NA,NA,0,NA,NA,NA,NA,25.88484785,-80.32304218,17RNJ6781563106,6613,0.47978512,AMERICAN ADVANCED TECHNICIANS INSTITUTE,V,3/29/2016,9/15/2017,6781,19,35,1
2.92323E+14,461005,NA,AMERICAN COLLEGE FOR MEDICAL CAREERS,,5959 LAKE ELLENOR DR,ORLANDO,32809,ORANGE,407-738-4488,COLLEGE/UNIVERSITY,TIC LAKE ELLENOR LLC .99999% I,PRIVATE,PRIVATE,1984,GEOPLAN,GEOPLAN,NA,COLLEGE,COLLEGE,COLLEGE,NA,0,0,0,0,NA,NO INFORMATION AVAILABLE,NA,0,0,0,0,U,NA,NA,0,NA,5/16/2012,NA,NA,28.47098369,-81.40233395,17RMM6061549443,5583,5.01892974,AMERICAN COLLEGE FOR MEDICAL CAREERS,V,7/29/2016,9/15/2017,5446,19,35,1
1.62516E+18,461670,NA,AMERICAN HEALTH INSTITUTE,85,10138 US HIGHWAY 19,PORT RICHEY,34654,PASCO,NA,COLLEGE/UNIVERSITY,SONI PLAZA ASSOCIATES LLC,PRIVATE,PRIVATE,1984,GEOPLAN,NCES 2014-2015 COLLEGE,NA,COLLEGE,COLLEGE,COLLEGE,NA,73,0,0,0,NA,NO INFORMATION AVAILABLE,NA,0,0,0,0,NA,NA,NA,0,NA,NA,NA,NA,28.3048134,-82.70090014,17RLM3322332143,6614,1.10369023,AMERICAN HEALTH INSTITUTE,V,3/29/2016,9/15/2017,6782,19,35,1
5.04017E+11,438601,NA,AMERICAN INTERCONTINENTAL UNIVERSITY FORT LAUDERDALE CAMPUS,,2250 NORTH COMMERCE PARKWAY SUITE 100,FORT LAUDERDALE,33326,BROWARD,954-446-6100,COLLEGE/UNIVERSITY,DP WESTON POINTE III LLC,PRIVATE,PRIVATE,2001,GEOPLAN,FDOE COLLEGE 2007,NA,COLLEGE,COLLEGE,COLLEGE,NA,0,0,0,0,NA,NO INFORMATION AVAILABLE,NA,0,0,0,0,U,NA,NA,0,NA,5/16/2012,NA,NA,26.08961928,-80.36708882,17RNJ6329385762,361,5.54778175,AMERICAN INTERCONTINENTAL UNIVERSITY FORT LAUDERDALE CAMPUS,V,11/6/2007,9/15/2017,279,19,35,1
3.05912E+12,475714,NA,AMERICAN MEDICAL ACADEMY,352,12215 SW 112 STREET,MIAMI,33186,MIAMI-DADE,NA,COLLEGE/UNIVERSITY,CHRISTAL PLAZA LTD,PRIVATE,PRIVATE,1982,GEOPLAN,NCES 2014-2015 COLLEGE,NA,COLLEGE,COLLEGE,COLLEGE,NA,247,0,0,0,NA,NO INFORMATION AVAILABLE,NA,0,0,0,0,NA,NA,NA,0,NA,NA,NA,NA,25.66279835,-80.39387791,17RNJ6083238481,6615,0.35593323,AMERICAN MEDICAL ACADEMY,V,3/29/2016,9/15/2017,6783,19,35,1
40010001,137148,NA,ARGOSY UNIVERSITY/SARASOTA,,5250 17TH ST,SARASOTA,34235,SARASOTA,941-379-0404,COLLEGE/UNIVERSITY,FULLERTON SARASOTA FRUITVILLE,PRIVATE,PRIVATE,1986,GEOPLAN,FDOE COLLEGE 2012,NA,COLLEGE,COLLEGE,COLLEGE,NA,0,0,0,0,NA,NO INFORMATION AVAILABLE,NA,0,0,0,0,U,NA,NA,0,NA,5/16/2012,NA,NA,27.35133078,-82.46529398,17RLL5506626201,3356,5.96892243,ARGOSY UNIVERSITY/SARASOTA,V,5/14/2012,9/15/2017,3218,19,35,1
1829144PE000001000130A,428268,NA,ARGOSY UNIVERSITY-TAMPA,,1403 N. HOWARD AVENUE,TAMPA,33607,HILLSBOROUGH,813-393-5290,COLLEGE/UNIVERSITY,JAMMAL NICHOLAS,PRIVATE,PRIVATE,1904,GEOPLAN,GEOPLAN,NA,COLLEGE,COLLEGE,COLLEGE,NA,684,0,0,0,NA,NO INFORMATION AVAILABLE,NA,0,0,0,0,U,NA,NA,0,NA,5/16/2012,NA,NA,27.95520077,-82.48250977,17RLL5416693124,5477,0.98143523,ARGOSY UNIVERSITY-TAMPA,V,5/14/2012,9/15/2017,5628,19,35,1
5.04214E+11,NA,NA,ART INSTITUTE OF FORT LAUDERDALE,651,1799 SE 17TH ST,FORT LAUDERDALE,33316,BROWARD,754-527-1799,COLLEGE/UNIVERSITY,ART INSTITUTE INVESTMENT LLC,PRIVATE,PRIVATE,1987,GEOPLAN,BROWARD COUNTY,NA,COLLEGE,COLLEGE,COLLEGE,NA,0,0,0,0,NA,NO INFORMATION AVAILABLE,NA,0,0,0,0,U,NA,NA,0,NA,5/16/2012,NA,NA,26.10104413,-80.12348952,17RNJ8764687169,772,6.24678973,ART INSTITUTE OF FORT LAUDERDALE,V,8/21/2003,9/15/2017,514,19,35,1
3.02224E+14,NA,NA,ASBURY THEOLOGICAL SEMINARY,1710,8401 VALENCIA COLLEGE LN,ORLANDO,32825,ORANGE,407-482-7500,COLLEGE/UNIVERSITY,ASBURY THEOLOGICAL SEMINARY,PRIVATE,PRIVATE,1995,GEOPLAN,DTS 2006,NA,COLLEGE,COLLEGE,COLLEGE,NA,0,0,0,0,NA,NO INFORMATION AVAILABLE,NA,0,0,0,0,U,NA,NA,0,NA,5/16/2012,NA,NA,28.55494215,-81.27243749,17RMM7335258709,957,5.28937995,ASBURY THEOLOGICAL SEMINARY,V,12/6/2006,9/15/2017,826,19,35,1
R32 323 17 5030 00A0 0000,446127,NA,ATA CAREER EDUCATION,251,7351 SPRING HILL DRIVE,SPRING HILL,34606,HERNANDO,NA,COLLEGE/UNIVERSITY,SPRING HILL ASSOCIATES LTD,PRIVATE,PRIVATE,1977,GEOPLAN,NCES 2014-2015 COLLEGE,NA,COLLEGE,COLLEGE,COLLEGE,NA,206,0,0,0,NA,NO INFORMATION AVAILABLE,NA,0,0,0,0,NA,NA,NA,0,NA,NA,NA,NA,28.45268657,-82.59542559,17RLM4378348387,6616,0.76560827,ATA CAREER EDUCATION,V,3/29/2016,9/15/2017,6784,19,35,1
5.0421E+11,439446,NA,ATLANTIC INSTITUTE OF ORIENTAL MEDICINE,134,100 E BROWARD BLVD,FORT LAUDERDALE,33301,BROWARD,NA,COLLEGE/UNIVERSITY,NEW YORK LIFE INSURANCE CO &,PRIVATE,PRIVATE,1982,GEOPLAN,NCES 2014-2015 COLLEGE,NA,COLLEGE,COLLEGE,COLLEGE,NA,139,0,0,0,NA,NO INFORMATION AVAILABLE,NA,0,0,0,0,NA,NA,NA,0,NA,NA,NA,NA,26.12192279,-80.14209111,17RNJ8577189469,6617,0.7535573,ATLANTIC INSTITUTE OF ORIENTAL MEDICINE,V,3/29/2016,9/15/2017,6785,19,35,1
1.3231E+11,485768,NA,ATLANTIS UNIVERSITY,341,1442 BISCAYNE BOULEVARD,MIAMI,33132,MIAMI-DADE,NA,COLLEGE/UNIVERSITY,PRH 1400 BISCAYNE TRUSTEE LLC,PRIVATE,PRIVATE,1971,GEOPLAN,NCES 2015-2016 COLLEGE,NA,COLLEGE,COLLEGE,COLLEGE,NA,0,0,0,0,NA,NA,NA,0,0,0,0,NA,NA,NA,0,NA,NA,NA,NA,25.7890172,-80.18946438,17RNJ8126352569,8576,2.70818594,ATLANTIS UNIVERSITY,V,4/17/2017,9/15/2017,8514,19,35,1
80708205127,442295,NA,AVE MARIA UNIVERSITY,,1025 COMMONS CIR,NAPLES,34110,COLLIER,239-687-5300,COLLEGE/UNIVERSITY,AVE MARIA SCHOOL OF LAW INC,PRIVATE,PRIVATE,2000,GEOPLAN,COLLIER COUNTY,NA,COLLEGE,COLLEGE,COLLEGE,NA,0,0,0,0,NA,NO INFORMATION AVAILABLE,NA,0,0,0,0,U,NA,NA,0,NA,NA,NA,NA,26.24282207,-81.73120678,17RMK2697202781,244,7.81953179,AVE MARIA UNIVERSITY,V,2/17/2004,9/15/2017,424,19,35,1
22671005344,446048,NA,AVE MARIA UNIVERSITY,1123,5050 AVE MARIA BLVD,AVE MARIA,34142,COLLIER,NA,COLLEGE/UNIVERSITY,AVE MARIA UNIVERSITY INC,PRIVATE,PRIVATE,2007,GEOPLAN,NCES 2014-2015 COLLEGE,NA,COLLEGE,COLLEGE,COLLEGE,NA,1081,0,0,0,NA,NO INFORMATION AVAILABLE,NA,0,0,0,0,NA,NA,NA,0,NA,NA,NA,NA,26.33595968,-81.43897313,17RMK5619412965,6618,712.3804692,AVE MARIA UNIVERSITY,V,3/29/2016,9/15/2017,6786,19,35,1
2.13451E+12,451158,NA,AVEDA INSTITUTE-TALLAHASSEE,500,2020 W PENSACOLA ST,TALLAHASSEE,32304,LEON,727-498-1474,COLLEGE/UNIVERSITY,WESTWOOD PLAZA LLC,PRIVATE,PRIVATE,1978,GEOPLAN,GEOPLAN,NA,COLLEGE,COLLEGE,COLLEGE,NA,176,0,0,0,NA,NO INFORMATION AVAILABLE,NA,0,0,0,0,U,NA,NA,0,NA,NA,NA,NA,30.44205377,-84.31793155,16RGU5757170826,5437,1.38363495,AVEDA INSTITUTE-TALLAHASSEE,V,5/14/2012,9/15/2017,5348,19,35,1
8.21303E+15,457411,NA,AVIATION INSTITUTE OF MAINTENANCE-ORLANDO,295,83 NILSON WAY HANGAR 7,ORLANDO,32803,SEMINOLE,407-896-2800,COLLEGE/UNIVERSITY,AIM ORLANDO SCHOOL BLDG LLC,PRIVATE,PRIVATE,2011,GEOPLAN,GEOPLAN,NA,COLLEGE,COLLEGE,COLLEGE,NA,106,0,0,0,NA,NO INFORMATION AVAILABLE,NA,0,0,0,0,U,NA,NA,0,NA,NA,NA,NA,28.68069286,-81.33439531,17RMM6733072656,5590,6.0042322,AVIATION INSTITUTE OF MAINTENANCE-ORLANDO,V,5/14/2012,9/15/2017,5453,19,35,1
1430-441-0002-000-3,447847,NA,AVIATOR COLLEGE OF AERONAUTICAL SCIENCE AND TECHNOLOGY,259,3800 ST LUCIE BLVD,FORT PIERCE,34946,ST LUCIE,NA,COLLEGE/UNIVERSITY,ST LUCIE COUNTY,PRIVATE,PRIVATE,0,GEOPLAN,NCES 2014-2015 COLLEGE,NA,COLLEGE,COLLEGE,COLLEGE,NA,176,0,0,0,NA,NO INFORMATION AVAILABLE,NA,0,0,0,0,NA,NA,NA,0,NA,NA,NA,NA,27.48721483,-80.36731541,17RNL6250040560,6619,13.7192169,AVIATOR COLLEGE OF AERONAUTICAL SCIENCE AND TECHNOLOGY,V,3/29/2016,9/15/2017,6787,19,35,1
3.42111E+12,483762,NA,AZURE COLLEGE,236,1525 NW 167TH STREET,MIAMI GARDENS,33169,MIAMI-DADE,NA,COLLEGE/UNIVERSITY,WELLS FARGO DELAWARE TRUST CO,PRIVATE,PRIVATE,1972,GEOPLAN,NCES 2014-2015 COLLEGE,NA,COLLEGE,COLLEGE,COLLEGE,NA,397,0,0,0,NA,NO INFORMATION AVAILABLE,NA,0,0,0,0,NA,NA,NA,0,NA,NA,NA,NA,25.92782544,-80.22778245,17RNJ7733067919,6620,2.46788411,AZURE COLLEGE,V,3/29/2016,9/15/2017,6788,19,35,1
2.92335E+14,NA,NA,BARRY UNIVERSITY,145,1650 SAND LAKE RD,ORLANDO,32809,ORANGE,800-756-6000,COLLEGE/UNIVERSITY,FLORIDA MALL BUSINESS CENTRE L,PRIVATE,PRIVATE,1987,GEOPLAN,ORANGE COUNTY,NA,COLLEGE,COLLEGE,COLLEGE,NA,0,0,0,0,NA,NO INFORMATION AVAILABLE,NA,0,0,0,0,U,NA,NA,0,NA,5/16/2012,NA,NA,28.44974816,-81.39984,17RMM6085147090,1367,2.12982908,BARRY UNIVERSITY,V,7/17/2007,9/15/2017,1120,19,35,1
1.34524E+16,NA,NA,BARRY UNIVERSITY,237,12381 S CLEVELAND AVE,FORT MYERS,33907,LEE,800-756-6000,COLLEGE/UNIVERSITY,G5 PROPERTIES LLC,PRIVATE,PRIVATE,1974,GEOPLAN,FDOE COLLEGE 2007,NA,COLLEGE,COLLEGE,COLLEGE,NA,0,0,0,0,NA,NO INFORMATION AVAILABLE,NA,0,0,0,0,U,NA,NA,0,NA,5/16/2012,NA,NA,26.56259528,-81.87146718,17RMK1320338285,1088,3.46848396,BARRY UNIVERSITY,V,11/6/2007,9/15/2017,956,19,35,1
3.66005E+12,NA,NA,BARRY UNIVERSITY,163,18958 S DIXIE HWY,MIAMI,33157,MIAMI-DADE,800-756-6000,COLLEGE/UNIVERSITY,KINGSTONE REAL HOLDING AVV,PRIVATE,PRIVATE,1984,GEOPLAN,FDOE COLLEGE 2007,NA,COLLEGE,COLLEGE,COLLEGE,NA,0,0,0,0,NA,NO INFORMATION AVAILABLE,NA,0,0,0,0,U,NA,NA,0,NA,5/16/2012,NA,NA,25.59039614,-80.35966212,17RNJ6430530479,787,2.39359066,BARRY UNIVERSITY,V,11/6/2007,9/15/2017,529,19,35,1
514018AA0000,NA,NA,BARRY UNIVERSITY,28,18005 NW 8TH ST,PEMBROKE PINES,33029,BROWARD,800-756-6000,COLLEGE/UNIVERSITY,LAKES PARK PLAZA TR,PRIVATE,PRIVATE,0,GEOPLAN,FDOE COLLEGE 2007,NA,COLLEGE,COLLEGE,COLLEGE,NA,0,0,0,0,NA,NO INFORMATION AVAILABLE,NA,0,0,0,0,U,NA,NA,0,NA,5/16/2012,NA,NA,26.00987364,-80.38756348,17RNJ6128776921,1508,0.41664424,BARRY UNIVERSITY,V,11/6/2007,9/15/2017,1366,19,35,1
1.12136E+12,132471,NA,BARRY UNIVERSITY - MAIN CAMPUS,8096,11300 NE 2ND AVE,MIAMI,33161,MIAMI-DADE,800-756-6000,COLLEGE/UNIVERSITY,BARRY COLLEGE,PRIVATE,PRIVATE,1954,GEOPLAN,MIAMI-DADE COUNTY,NA,COLLEGE,COLLEGE,COLLEGE,NA,0,0,0,0,NA,NO INFORMATION AVAILABLE,NA,0,0,0,0,U,NA,NA,0,NA,NA,NA,NA,25.87913842,-80.19631801,17RNJ8051462546,776,118.7288795,BARRY UNIVERSITY - MAIN CAMPUS,V,6/1/2006,9/15/2017,518,19,35,1
5.24242E+16,NA,NA,BARRY UNIVERSITY - NORTH PALM BEACH CAMPUS,236,9123 N MILITARY TRL,PALM BEACH GARDENS,33418,PALM BEACH,800-756-6000,COLLEGE/UNIVERSITY,PROFESSIONAL PROP OF THE,PRIVATE,PRIVATE,1986,GEOPLAN,PALM BEACH COUNTY,NA,COLLEGE,COLLEGE,COLLEGE,NA,0,0,0,0,NA,NO INFORMATION AVAILABLE,NA,0,0,0,0,U,NA,NA,0,NA,5/16/2012,NA,NA,26.81217476,-80.10682717,17RNK8876565944,2251,3.4551123,BARRY UNIVERSITY - NORTH PALM BEACH CAMPUS,V,5/14/2012,9/15/2017,2411,19,35,1
3.12216E+14,NA,NA,BARRY UNIVERSITY - SCHOOL OF ADULT AND CONTINUING EDUCATION,,2000 N ALAFAYA TL,ORLANDO,32817,ORANGE,800-756-6000,COLLEGE/UNIVERSITY,ALAFAYA CORPORATE CENTER LC,PRIVATE,PRIVATE,2003,GEOPLAN,ORANGE COUNTY,NA,COLLEGE,COLLEGE,COLLEGE,NA,0,0,0,0,NA,NO INFORMATION AVAILABLE,NA,0,0,0,0,U,NA,NA,0,NA,5/16/2012,NA,NA,28.57251611,-81.20839106,17RMM7962060643,995,2.64140713,BARRY UNIVERSITY - SCHOOL OF ADULT AND CONTINUING EDUCATION,V,5/14/2012,9/15/2017,864,19,35,4
3.02222E+14,13247101,NA,BARRY UNIVERSITY LAW SCHOOL,,6441 EAST COLONIAL DRIVE,ORLANDO,32807,ORANGE,NA,COLLEGE/UNIVERSITY,BARRY UNIVERSITY INC,PRIVATE,PRIVATE,2011,GEOPLAN,NCES 2014-2015 COLLEGE,NA,COLLEGE,COLLEGE,COLLEGE,NA,0,0,0,0,NA,NO INFORMATION AVAILABLE,NA,0,0,0,0,NA,NA,NA,0,NA,NA,NA,NA,28.56701063,-81.30139033,17RMM7052360053,6621,21.51910605,BARRY UNIVERSITY LAW SCHOOL,V,3/29/2016,9/15/2017,6789,19,35,1
2.61924E+17,384254,NA,BEACON COLLEGE,285,105 E MAIN STREET,LEESBURG,34748,LAKE,352-787-7660,COLLEGE/UNIVERSITY,BEACON COLLEGE INC,PRIVATE,PRIVATE,2013,GEOPLAN,DTS,NA,COLLEGE,COLLEGE,COLLEGE,NA,0,0,0,0,NA,NO INFORMATION AVAILABLE,NA,0,0,0,0,U,NA,NA,0,NA,NA,NA,NA,28.81084382,-81.8747489,17RMM1464387343,4407,9.92636463,BEACON COLLEGE,V,12/6/2006,9/15/2017,4272,19,35,1
376400000,NA,NA,BETHUNE COOKMAN COLLEGE,25,7645 SR 207,ELKTON,32033,ST JOHNS,NA,COLLEGE/UNIVERSITY,BETHUNE COOKMAN COLLEGE,STATE,PUBLIC,1991,GEOPLAN,NEFRPC,NA,COLLEGE,COLLEGE,COLLEGE,NA,0,0,0,0,NA,NO INFORMATION AVAILABLE,NA,0,0,0,0,U,NA,NA,0,NA,5/16/2012,NA,NA,29.73137236,-81.47887323,17RMN5369089116,70,0.86054702,BETHUNE COOKMAN COLLEGE,V,6/15/2006,9/15/2017,107,19,35,2
3.31539E+13,132602,NA,BETHUNE COOKMAN COLLEGE,2302,640 DR MARY MCLEOD BETHUNE BLVD,DAYTONA BEACH,32114,VOLUSIA,386-481-2000,COLLEGE/UNIVERSITY,BETHUNE-COOKMAN COLLEGE INC,PRIVATE,PRIVATE,1978,GEOPLAN,VOLUSIA COUNTY,NA,COLLEGE,COLLEGE,COLLEGE,NA,0,0,0,0,NA,NO INFORMATION AVAILABLE,NA,0,0,0,0,U,NA,NA,0,NA,NA,NA,NA,29.21286495,-81.03352448,17RMN9674131570,1428,79.25447053,BETHUNE COOKMAN COLLEGE,V,7/3/2007,9/15/2017,1582,19,35,1
4.37441E+15,NA,NA,BETHUNE-COOKMAN COLLEGE - BELLE GLADE CAMPUS,1710,1001 SW AVENUE M,BELLE GLADE,33430,PALM BEACH,386-255-1401,COLLEGE/UNIVERSITY,BETHUNE COOKMAN COLLEGE,STATE,PUBLIC,1995,GEOPLAN,PALM BEACH COUNTY,NA,COLLEGE,COLLEGE,COLLEGE,NA,0,0,0,0,NA,NO INFORMATION AVAILABLE,NA,0,0,0,0,U,NA,NA,0,NA,5/16/2012,NA,NA,26.66827217,-80.67989512,17RNK3185249734,2247,58.85931652,BETHUNE-COOKMAN COLLEGE - BELLE GLADE CAMPUS,V,8/29/2001,9/15/2017,2407,19,35,2
5.0421E+11,NA,NA,BROWARD COLLEGE,,220 SE 2ND AVE,FORT LAUDERDALE,33301,BROWARD,NA,COLLEGE/UNIVERSITY,BROWARD COLLEGE,STATE,PUBLIC,1997,GEOPLAN,BROWARD COUNTY,NA,COLLEGE,COLLEGE,COLLEGE,NA,0,0,0,0,NA,NO INFORMATION AVAILABLE,NA,0,0,0,0,U,NA,NA,0,NA,5/16/2012,NA,NA,26.11971645,-80.14102125,17RNJ8587989225,2898,0.49636809,BROWARD COLLEGE,V,8/21/2003,9/15/2017,2764,19,35,7
5.04137E+11,NA,NA,BROWARD COLLEGE - CENTRAL CAMPUS & HEALTH SCIENCE CENTER,13112,3501 SW DAVIE ROAD,FORT LAUDERDALE,33314,BROWARD,954-201-6500,COLLEGE/UNIVERSITY,BROWARD COLLEGE,STATE,PUBLIC,1963,GEOPLAN,BROWARD COUNTY,NA,COLLEGE,COLLEGE,COLLEGE,NA,0,0,0,0,NA,NO INFORMATION AVAILABLE,(FORMERLY BROWARD COMMUNITY COLLEGE),0,0,0,0,U,NA,NA,0,NA,5/16/2012,NA,NA,26.0803767,-80.23599589,17RNJ7640984809,2886,147.3994694,BROWARD COLLEGE - CENTRAL CAMPUS & HEALTH SCIENCE CENTER,V,5/14/2012,9/15/2017,3039,19,35,7
4.84232E+11,NA,NA,BROWARD COLLEGE - NORTH CAMPUS,9747,1000 COCONUT CREEK BLVD,POMPANO BEACH,33066,BROWARD,954-201-2242,COLLEGE/UNIVERSITY,BROWARD COLLEGE,STATE,PUBLIC,1971,GEOPLAN,BROWARD COUNTY,NA,COLLEGE,COLLEGE,COLLEGE,NA,0,0,0,0,NA,NO INFORMATION AVAILABLE,(FORMERLY BROWARD COMMUNITY COLLEGE),0,0,0,0,U,NA,NA,0,NA,5/16/2012,NA,NA,26.24208007,-80.17171114,17RNK8272402758,2826,115.5227015,BROWARD COLLEGE - NORTH CAMPUS,V,5/14/2012,9/15/2017,2980,19,35,7
5.14005E+11,NA,NA,BROWARD COLLEGE - PINES CENTER,6642,16957 SHERIDAN ST,FORT LAUDERDALE,33331,BROWARD,954-201-3601,COLLEGE/UNIVERSITY,BROWARD COLLEGE,STATE,PUBLIC,2001,GEOPLAN,FDOE COLLEGE 2012,NA,COLLEGE,COLLEGE,COLLEGE,NA,0,0,0,0,NA,NO INFORMATION AVAILABLE,(FORMERLY BROWARD COMMUNITY COLLEGE),0,0,0,0,U,NA,NA,0,NA,5/16/2012,NA,NA,26.0317044,-80.374646,17RNJ6256879345,2310,69.90798591,BROWARD COLLEGE - PINES CENTER,V,5/14/2012,9/15/2017,2470,19,35,7
5.14115E+11,NA,NA,BROWARD COLLEGE - SOUTH CAMPUS,8885,7200 PINES BLVD,HOLLYWOOD,33023,BROWARD,954-201-8835,COLLEGE/UNIVERSITY,BROWARD COLLEGE,STATE,PUBLIC,1997,GEOPLAN,BROWARD COUNTY,NA,COLLEGE,COLLEGE,COLLEGE,NA,0,0,0,0,NA,NO INFORMATION AVAILABLE,(FORMERLY BROWARD COMMUNITY COLLEGE),0,0,0,0,U,NA,NA,0,NA,5/16/2012,NA,NA,26.00678986,-80.2359245,17RNJ7646476659,2329,102.8273167,BROWARD COLLEGE - SOUTH CAMPUS,V,5/14/2012,9/15/2017,2196,19,35,7
5.0403E+11,NA,NA,BROWARD COLLEGE - WESTON CENTER,,4205 BONAVENTURE BLVD,WESTON,33331,BROWARD,954-201-8501,COLLEGE/UNIVERSITY,BROWARD COLLEGE,STATE,PUBLIC,2005,GEOPLAN,GEOPLAN,NA,COLLEGE,COLLEGE,COLLEGE,NA,0,0,0,0,NA,NO INFORMATION AVAILABLE,NA,0,0,0,0,U,NA,NA,0,NA,5/16/2012,NA,NA,26.06812241,-80.39432489,17RNJ6058083369,5664,5.19412107,BROWARD COLLEGE - WESTON CENTER,V,5/14/2012,9/15/2017,5526,19,35,7
5.0421E+11,132709,NA,BROWARD COLLEGE - WILLIS HOLCOMBE CENTER,414,111 E LAS OLAS BLVD,FORT LAUDERDALE,33301,BROWARD,754-761-7465,COLLEGE/UNIVERSITY,BROWARD COLLEGE,STATE,PUBLIC,1960,GEOPLAN,BROWARD COUNTY,NA,COLLEGE,COLLEGE,COLLEGE,NA,0,0,0,0,NA,NO INFORMATION AVAILABLE,(FORMERLY BROWARD COMMUNITY COLLEGE),0,0,0,0,U,NA,NA,0,NA,5/16/2012,NA,NA,26.11936634,-80.14093799,17RNJ8588889186,2897,0.73177895,BROWARD COLLEGE - WILLIS HOLCOMBE CENTER,V,5/14/2012,9/15/2017,2763,19,35,7
5.14028E+11,447290,NA,BROWN MACKIE COLLEGE-MIAMI,919,3700 LAKESIDE DRIVE,MIRAMAR,33027,BROWARD,NA,COLLEGE/UNIVERSITY,EASTERN FINANCIAL FED CR UNION,PRIVATE,PRIVATE,1996,GEOPLAN,NCES 2015-2016 COLLEGE,NA,COLLEGE,COLLEGE,COLLEGE,NA,0,0,0,0,NA,NA,NA,0,0,0,0,NA,NA,NA,0,NA,NA,NA,NA,25.97385786,-80.3508298,17RNJ6498372950,8569,11.99919031,BROWN MACKIE COLLEGE-MIAMI,V,4/17/2017,9/15/2017,8507,19,35,1
8.43453E+15,484181,NA,BURNETT INTERNATIONAL COLLEGE,,1903 SOUTH CONGRESS AVENUE,BOYNTON BEACH,33426,PALM BEACH,NA,COLLEGE/UNIVERSITY,CONGRESS PROPERTIES & INVESTME,PRIVATE,PRIVATE,1985,GEOPLAN,NCES 2014-2015 COLLEGE,NA,COLLEGE,COLLEGE,COLLEGE,NA,281,0,0,0,NA,NO INFORMATION AVAILABLE,NA,0,0,0,0,NA,NA,NA,0,NA,NA,NA,NA,26.5107002,-80.09159866,17RNK9051632563,6622,2.51576374,BURNETT INTERNATIONAL COLLEGE,V,3/29/2016,9/15/2017,6790,19,35,1
1221295BE00005640,446109,NA,CAMBRIDGE INSTITUTE OF ALLIED HEALTH & TECHNOLOGY,235,460 E. ALTAMONTE DRIVE,ALTAMONTE SPRINGS,32701,SEMINOLE,NA,COLLEGE/UNIVERSITY,ALTAMONTE OAKS MEDICAL GROUP L,PRIVATE,PRIVATE,1989,GEOPLAN,NCES 2014-2015 COLLEGE,NA,COLLEGE,COLLEGE,COLLEGE,NA,188,0,0,0,NA,NO INFORMATION AVAILABLE,NA,0,0,0,0,NA,NA,NA,0,NA,NA,NA,NA,28.66300941,-81.37582276,17RMM6327770709,6623,3.1551859,CAMBRIDGE INSTITUTE OF ALLIED HEALTH & TECHNOLOGY,V,3/29/2016,9/15/2017,6791,19,35,1
1.24246E+16,454865,NA,CAMBRIDGE INSTITUTE OF HEALTH & TECHNOLOGY,164,5150 LINTON BLVD,DELRAY BEACH,33484,PALM BEACH,NA,COLLEGE/UNIVERSITY,FLA PALM COURT LTD PTNRSHP,PRIVATE,PRIVATE,1985,GEOPLAN,NCES 2014-2015 COLLEGE,NA,COLLEGE,COLLEGE,COLLEGE,NA,210,0,0,0,NA,NO INFORMATION AVAILABLE,NA,0,0,0,0,NA,NA,NA,0,NA,NA,NA,NA,26.43831118,-80.12446043,17RNK8729624522,6624,1.38222806,CAMBRIDGE INSTITUTE OF HEALTH & TECHNOLOGY,V,3/29/2016,9/15/2017,6792,19,35,1
3.53032E+12,132842,NA,CARLOS ALBIZU UNIVERSITY - MAIN CAMPUS,2801,2173 NW 99TH AVE,MIAMI,33172,MIAMI-DADE,305-593-1223,COLLEGE/UNIVERSITY,UNIVERSIDAD C ALBIZU INC,PRIVATE,PRIVATE,1969,GEOPLAN,MIAMI-DADE COUNTY,NA,COLLEGE,COLLEGE,COLLEGE,NA,0,0,0,0,NA,NO INFORMATION AVAILABLE,NA,0,0,0,0,U,NA,NA,0,NA,NA,NA,NA,25.794216,-80.35652308,17RNJ6451053053,761,18.29468397,CARLOS ALBIZU UNIVERSITY - MAIN CAMPUS,V,6/1/2006,9/15/2017,503,19,35,1
0328650000R,447874,NA,CDA TECHNICAL INSTITUTE,,91 TROUT RIVER DRIVE,JACKSONVILLE,32208,DUVAL,NA,COLLEGE/UNIVERSITY,CDA TECHNICAL INSTITUTE INC,PRIVATE,PRIVATE,1914,GEOPLAN,NCES 2015-2016 COLLEGE,NA,COLLEGE,COLLEGE,COLLEGE,NA,0,0,0,0,NA,NA,NA,0,0,0,0,NA,NA,NA,0,NA,NA,NA,NA,30.39161277,-81.64813976,17RMP3773562359,8551,0.89980033,CDA TECHNICAL INSTITUTE,V,4/17/2017,9/15/2017,8492,19,35,1
16 30 04 77515 000 3100,488226,NA,CENTER FOR NEUROSOMATIC STUDIES,21,13825 ICOT BOULEVARD,CLEARWATER,33760,PINELLAS,NA,COLLEGE/UNIVERSITY,"DOUGLAS, RICHARD HOMES INC",PRIVATE,PRIVATE,1984,GEOPLAN,NCES 2015-2016 COLLEGE,NA,COLLEGE,COLLEGE,COLLEGE,NA,0,0,0,0,NA,NA,NA,0,0,0,0,NA,NA,NA,0,NA,NA,NA,NA,27.89773641,-82.7145965,17RLL3124387056,8586,2.46334977,CENTER FOR NEUROSOMATIC STUDIES,V,4/17/2017,9/15/2017,8524,19,35,1
2.32908E+17,NA,NA,CENTRAL FLORIDA AEROSPACE ACADEMY,,4175 MEDULLA RD,LAKELAND,33811,POLK,800-522-6787,COLLEGE/UNIVERSITY,CITY OF LAKELAND,PRIVATE,PRIVATE,2011,GEOPLAN,FDOE COLLEGE 2007,NA,COLLEGE,COLLEGE,COLLEGE,NA,0,0,0,0,NA,NO INFORMATION AVAILABLE,(FORMERLY EMBRY RIDDLE AERO UNIVERSITY),0,0,0,0,U,NA,NA,0,NA,NA,NA,NA,27.98148155,-82.02758437,17RLL9894595576,3032,8.15288976,CENTRAL FLORIDA AEROSPACE ACADEMY,V,5/14/2012,9/15/2017,2896,19,35,1
2.92133E+14,446446,NA,CENTURA INSTITUTE,47,6359 EDGEWATER DR,ORLANDO,32810,ORANGE,407-275-9696,COLLEGE/UNIVERSITY,YAGEN RENTAL PROPERTIES LLC,PRIVATE,PRIVATE,1992,GEOPLAN,GEOPLAN,NA,COLLEGE,COLLEGE,COLLEGE,NA,0,0,0,0,NA,NO INFORMATION AVAILABLE,(FORMERLY POLYTECHNIC),0,0,0,0,U,NA,NA,0,NA,NA,NA,NA,28.61605123,-81.42290174,17RMM5865865522,1320,3.92289,CENTURA INSTITUTE,V,5/14/2012,9/15/2017,1340,19,35,1
1525760700R,457129,NA,CHAMBERLAIN COLLEGE OF NURSING-FLORIDA,248,5200 BELFORT RD,JACKSONVILLE,32256,DUVAL,NA,COLLEGE/UNIVERSITY,ROSEMONT CONCOURSE OPERATING L,PRIVATE,PRIVATE,2001,GEOPLAN,NCES 2014-2015 COLLEGE,NA,COLLEGE,COLLEGE,COLLEGE,NA,853,0,0,0,NA,NO INFORMATION AVAILABLE,NA,0,0,0,0,NA,NA,NA,0,NA,NA,NA,NA,30.24348344,-81.58648508,17RMP4357345911,6625,6.82437827,CHAMBERLAIN COLLEGE OF NURSING-FLORIDA,V,3/29/2016,9/15/2017,6793,19,35,1
33-5N-10-0000-0760-0000,133021,NA,CHIPOLA COLLEGE - MAIN CAMPUS,853,3094 INDIAN CR,MARIANNA,32446,JACKSON,850-526-2761,COLLEGE/UNIVERSITY,CHIPOLA COLLEGE,STATE,PUBLIC,1960,GEOPLAN,JACKSON COUNTY,NA,COLLEGE,COLLEGE,COLLEGE,NA,0,0,0,0,NA,NO INFORMATION AVAILABLE,(FORMERLY CHIPOLA COLLEGE ADMINISTRATION & SUPPORT SERVICES),0,0,0,0,U,NA,NA,0,NA,5/16/2012,NA,NA,30.78739854,-85.23260205,16RFV6911307376,3928,125.7040089,CHIPOLA COLLEGE - MAIN CAMPUS,V,5/14/2012,9/15/2017,3927,19,35,1
4.94216E+11,244233,NA,CITY COLLEGE,575,2000 W COMMERCIAL BLVD,FORT LAUDERDALE,33309,BROWARD,954-492-5353,COLLEGE/UNIVERSITY,CITY COLLEGE INC,PRIVATE,PRIVATE,1971,GEOPLAN,BROWARD COUNTY,NA,COLLEGE,COLLEGE,COLLEGE,NA,0,0,0,0,NA,NO INFORMATION AVAILABLE,NA,0,0,0,0,U,NA,NA,0,NA,NA,NA,NA,26.18745083,-80.17018232,17RNJ8291696708,1115,8.71060551,CITY COLLEGE,V,8/21/2003,9/15/2017,1138,19,35,2
07332-200-002,406547,NA,CITY COLLEGE,510,2400 SW 13TH ST,GAINESVILLE,32608,ALACHUA,352-335-4000,COLLEGE/UNIVERSITY,CITY COLLEGE INC,PRIVATE,PRIVATE,1972,GEOPLAN,FDOE COLLEGE 2007,NA,COLLEGE,COLLEGE,COLLEGE,NA,0,0,0,0,NA,NO INFORMATION AVAILABLE,NA,0,0,0,0,U,NA,NA,0,NA,NA,NA,NA,29.62914982,-82.33996316,17RLN7028078443,1266,1.60999302,CITY COLLEGE,V,11/6/2007,9/15/2017,1287,19,35,2
3.05002E+12,434539,NA,CITY COLLEGE,263,9300 S DADELAND BLVD,MIAMI,33156,MIAMI-DADE,305-666-9242X121,COLLEGE/UNIVERSITY,DADELAND TOWERS NORTH ASSOC LL,PRIVATE,PRIVATE,1971,GEOPLAN,MIAMI-DADE COUNTY,NA,COLLEGE,COLLEGE,COLLEGE,NA,0,0,0,0,NA,NO INFORMATION AVAILABLE,NA,0,0,0,0,U,NA,NA,0,NA,NA,NA,NA,25.68354426,-80.31643102,17RNJ6859340816,784,1.55752845,CITY COLLEGE,V,6/1/2006,9/15/2017,526,19,35,1
152129300015D0000,417327,NA,CITY COLLEGE,410,177 MONTGOMERY RD,ALTAMONTE SPRINGS,32714,SEMINOLE,407-831-9816,COLLEGE/UNIVERSITY,MONTGOMERY EXECUTIVE CENTER AS,PRIVATE,PRIVATE,0,GEOPLAN,SEMINOLE COUNTY,NA,COLLEGE,COLLEGE,COLLEGE,NA,0,0,0,0,NA,NO INFORMATION AVAILABLE,NA,0,0,0,0,U,NA,NA,0,NA,NA,NA,NA,28.663521,-81.40214319,17RMM6070570774,1316,1.33941335,CITY COLLEGE,V,12/29/2011,9/15/2017,1336,19,35,1
5.14111E+11,475477,NA,CITY COLLEGE-HOLLYWOOD,255,6565 TAFT STREET,HOLLYWOOD,33024,BROWARD,NA,COLLEGE/UNIVERSITY,POAL WK TAFT LLC,PRIVATE,PRIVATE,1988,GEOPLAN,NCES 2014-2015 COLLEGE,NA,COLLEGE,COLLEGE,COLLEGE,NA,138,0,0,0,NA,NO INFORMATION AVAILABLE,NA,0,0,0,0,NA,NA,NA,0,NA,NA,NA,NA,26.02514656,-80.2199501,17RNJ7805078702,6626,2.61693369,CITY COLLEGE-HOLLYWOOD,V,3/29/2016,9/15/2017,6794,19,35,1
16 29 16 00000 110 0100,133085,NA,CLEARWATER CHRISTIAN COLLEGE,567,3400 GULF TO BAY BLVD,CLEARWATER,33759,PINELLAS,727-726-1153X225,COLLEGE/UNIVERSITY,CLEARWATER CHRISTIAN COLLEGE P,PRIVATE,PRIVATE,1967,GEOPLAN,PINELLAS COUNTY,NA,COLLEGE,COLLEGE,COLLEGE,NA,0,0,0,0,NA,NO INFORMATION AVAILABLE,NA,0,0,0,0,U,NA,NA,0,NA,NA,NA,NA,27.9637518,-82.69794305,17RLL3298494348,2518,43.50406325,CLEARWATER CHRISTIAN COLLEGE,V,1/11/2008,9/15/2017,2671,19,35,1
3.66005E+12,456977,NA,COLLEGE OF BUSINESS AND TECHNOLOGY-CUTLER BAY,53,19151 SOUTH DIXIE HWY # 205,CUTLER BAY,33157,MIAMI-DADE,NA,COLLEGE/UNIVERSITY,EQUITY ONE FL PORTFOLIO INC,PRIVATE,PRIVATE,0,GEOPLAN,NCES 2014-2015 COLLEGE,NA,COLLEGE,COLLEGE,COLLEGE,NA,132,0,0,0,NA,NO INFORMATION AVAILABLE,NA,0,0,0,0,NA,NA,NA,0,NA,NA,NA,NA,25.59044099,-80.35666459,17RNJ6460630486,6627,0.59225817,COLLEGE OF BUSINESS AND TECHNOLOGY-CUTLER BAY,V,3/29/2016,9/15/2017,6795,19,35,1
3.04004E+12,417318,NA,COLLEGE OF BUSINESS AND TECHNOLOGY-MAIN CAMPUS,508,8700 WEST FLAGLER STREET,MIAMI,33174,MIAMI-DADE,NA,COLLEGE/UNIVERSITY,FLAGLER WEST CORPORATE CENTER,PRIVATE,PRIVATE,1980,GEOPLAN,NCES 2015-2016 COLLEGE,NA,COLLEGE,COLLEGE,COLLEGE,NA,0,0,0,0,NA,NA,NA,0,0,0,0,NA,NA,NA,0,NA,NA,NA,NA,25.76851678,-80.3374952,17RNJ6643250216,8577,5.66459671,COLLEGE OF BUSINESS AND TECHNOLOGY-MAIN CAMPUS,V,4/17/2017,9/15/2017,8515,19,35,1
3.42118E+12,482024,NA,COLLEGE OF BUSINESS AND TECHNOLOGY-MIAMI GARDENS,155,5190 NW 167 STREET,MIAMI GARDENS,33014,MIAMI-DADE,NA,COLLEGE/UNIVERSITY,EAN PROPERTIES INC,PRIVATE,PRIVATE,1974,GEOPLAN,NCES 2014-2015 COLLEGE,NA,COLLEGE,COLLEGE,COLLEGE,NA,89,0,0,0,NA,NO INFORMATION AVAILABLE,NA,0,0,0,0,NA,NA,NA,0,NA,NA,NA,NA,25.92470287,-80.2846042,17RNJ7164267541,6628,1.72322293,COLLEGE OF BUSINESS AND TECHNOLOGY-MIAMI GARDENS,V,3/29/2016,9/15/2017,6796,19,35,1
4.3001E+11,449092,NA,COLLEGE OF BUSINESS TECHNOLOGIES,80,935 W 49TH ST,HIALEAH,33012,MIAMI-DADE,305-273-4499X300,COLLEGE/UNIVERSITY,Q V H CORP,PRIVATE,PRIVATE,1964,GEOPLAN,MIAMI-DADE COUNTY,NA,COLLEGE,COLLEGE,COLLEGE,NA,0,0,0,0,NA,NO INFORMATION AVAILABLE,NA,0,0,0,0,U,NA,NA,0,NA,NA,NA,NA,25.86709953,-80.3021956,17RNJ6991461152,759,0.89130881,COLLEGE OF BUSINESS TECHNOLOGIES,V,6/1/2006,9/15/2017,501,19,35,2
3.04003E+12,449083,NA,COLLEGE OF BUSINESS TECHNOLOGIES,205,8230 W FLAGLER ST,MIAMI,33144,MIAMI-DADE,305-273-4499X2200,COLLEGE/UNIVERSITY,Q V H CORP,PRIVATE,PRIVATE,1986,GEOPLAN,MIAMI-DADE COUNTY,NA,COLLEGE,COLLEGE,COLLEGE,NA,0,0,0,0,NA,NO INFORMATION AVAILABLE,NA,0,0,0,0,U,NA,NA,0,NA,NA,NA,NA,25.76898517,-80.32915409,17RNJ6726850272,764,2.28214323,COLLEGE OF BUSINESS TECHNOLOGIES,V,6/1/2006,9/15/2017,506,19,35,2
27021-001-02,NA,NA,COLLEGE OF CENTRAL FLORIDA - APPLETON MUSEUM OF ART,,4333 NE SILVER SPRINGS BLVD,OCALA,34470,MARION,352-291-4455,COLLEGE/UNIVERSITY,COLLEGE OF CENTRAL FLORIDA,STATE,PUBLIC,1987,GEOPLAN,DTS,NA,COLLEGE,COLLEGE,COLLEGE,NA,0,0,0,0,NA,NO INFORMATION AVAILABLE,(FORMERLY APPLETON MOA OF CENTRAL FLORIDA COMMUNITY COLLEGE),0,0,0,0,U,NA,NA,0,NA,5/16/2012,NA,NA,29.20651875,-82.07718137,17RLN9528931347,5012,13.81402851,COLLEGE OF CENTRAL FLORIDA - APPLETON MUSEUM OF ART,V,5/14/2012,9/15/2017,5153,19,35,5
18E19S21      13000,NA,NA,COLLEGE OF CENTRAL FLORIDA - CITRUS CAMPUS,2667,3800 S LECANTO HWY,LECANTO,34461,CITRUS,352-493-9533,COLLEGE/UNIVERSITY,COLLEGE OF CENTRAL FLORIDA,STATE,PUBLIC,2000,GEOPLAN,GEOPLAN,NA,COLLEGE,COLLEGE,COLLEGE,NA,0,0,0,0,NA,NO INFORMATION AVAILABLE,NA,0,0,0,0,U,NA,NA,0,NA,5/16/2012,NA,NA,28.80826216,-82.4890428,17RLM5469287653,5440,92.60819983,COLLEGE OF CENTRAL FLORIDA - CITRUS CAMPUS,V,5/14/2012,9/15/2017,5351,19,35,5
28446-000-00,NA,NA,COLLEGE OF CENTRAL FLORIDA - HAMPTON CENTER,134,1501 W SILVER SPRINGS BLVD,OCALA,34475,MARION,352-861-4412,COLLEGE/UNIVERSITY,COLLEGE OF CENTRAL FLORIDA,STATE,PUBLIC,2006,GEOPLAN,DTS,NA,COLLEGE,COLLEGE,COLLEGE,NA,0,0,0,0,NA,NO INFORMATION AVAILABLE,(FORMERLY CENTRAL FLORIDA COMMUNITY COLLEGE),0,0,0,0,U,NA,NA,0,NA,5/16/2012,NA,NA,29.18709346,-82.15211569,17RLN8798329264,4992,4.64173757,COLLEGE OF CENTRAL FLORIDA - HAMPTON CENTER,V,5/14/2012,9/15/2017,5133,19,35,5
23459-000-02,132851,NA,COLLEGE OF CENTRAL FLORIDA - OCALA CAMPUS,3869,3001 SW COLLEGE RD,OCALA,34474,MARION,352-861-4412,COLLEGE/UNIVERSITY,COLLEGE OF CENTRAL FLORIDA,STATE,PUBLIC,1959,GEOPLAN,DTS,NA,COLLEGE,COLLEGE,COLLEGE,NA,0,0,0,0,NA,NO INFORMATION AVAILABLE,(FORMERLY CENTRAL FLORIDA COMMUNITY COLLEGE),0,0,0,0,U,NA,NA,0,NA,5/16/2012,NA,NA,29.16608635,-82.17545104,17RLN8569026958,4021,134.3457986,COLLEGE OF CENTRAL FLORIDA - OCALA CAMPUS,V,5/14/2012,9/15/2017,4020,19,35,5
80600000,NA,NA,COLLEGE OF CENTRAL FLORIDA CAMPUS,151,114 RODGERS BLVD,CHIEFLAND,32626,LEVY,352-493-9530,COLLEGE/UNIVERSITY,COLLEGE OF CENTRAL FLORIDA,STATE,PUBLIC,1973,GEOPLAN,FDOE PUBLIC 2007,NA,COLLEGE,COLLEGE,COLLEGE,NA,0,0,0,0,NA,NO INFORMATION AVAILABLE,(FORMERLY LEVY COUNTY ADULT),0,0,0,0,U,NA,NA,0,NA,5/16/2012,NA,NA,29.48884358,-82.86027369,17RLN1965263589,4005,5.23578448,COLLEGE OF CENTRAL FLORIDA CAMPUS,V,5/29/2007,9/15/2017,4004,19,35,5
334625E1U18692389,NA,NA,COLLEGE OF LIFE FOUNDATION,,8661 CORKSCREW RD,ESTERO,33928,LEE,239-992-2184,COLLEGE/UNIVERSITY,STATE OF FLORIDA,STATE,PUBLIC,1965,GEOPLAN,FDOE COLLEGE 2007,NA,COLLEGE,COLLEGE,COLLEGE,NA,0,0,0,0,NA,NO INFORMATION AVAILABLE,NA,0,0,0,0,U,NA,NA,0,NA,5/16/2012,NA,NA,26.43228681,-81.81750412,17RMK1848623817,1079,160.7637775,COLLEGE OF LIFE FOUNDATION,V,11/6/2007,9/15/2017,947,19,35,3
2.92222E+14,NA,NA,COLUMBIA COLLEGE,500,2600 TECHNOLOGY DR,ORLANDO,32804,ORANGE,407-293-9911,COLLEGE/UNIVERSITY,AETNA LIFE INSURANCE CO,PRIVATE,PRIVATE,1988,GEOPLAN,FDOE COLLEGE 2007,NA,COLLEGE,COLLEGE,COLLEGE,NA,0,0,0,0,NA,NO INFORMATION AVAILABLE,NA,0,0,0,0,U,NA,NA,0,NA,5/16/2012,NA,NA,28.55519273,-81.41269046,17RMM5963358776,599,4.27676711,COLUMBIA COLLEGE,V,11/6/2007,9/15/2017,623,19,35,1
1528360000R,17706529,NA,COLUMBIA COLLEGE -  JACKSONVILLE,500,7077 BONNEVAL ROAD,JACKSONVILLE,32216,DUVAL,NA,COLLEGE/UNIVERSITY,LSOP 3C II LLC,PRIVATE,PRIVATE,1988,GEOPLAN,NCES 2015-2016 COLLEGE,NA,COLLEGE,COLLEGE,COLLEGE,NA,0,0,0,0,NA,NA,NA,0,0,0,0,NA,NA,NA,0,NA,NA,NA,NA,30.24702825,-81.59737391,17RMP4252746310,8553,6.97692795,COLUMBIA COLLEGE -  JACKSONVILLE,V,4/17/2017,9/15/2017,8494,19,35,1
0984050000R,17706504,NA,COLUMBIA COLLEGE-NAS JACKSONVILLE,500,110 YORKTOWN AVE,JACKSONVILLE,32212,DUVAL,NA,COLLEGE/UNIVERSITY,UNITED STATES OF AMERICA,FEDERAL,PUBLIC,1954,GEOPLAN,NCES 2015-2016 COLLEGE,NA,COLLEGE,COLLEGE,COLLEGE,NA,0,0,0,0,NA,NO INFORMATION AVAILABLE,NA,0,0,0,0,NA,NA,NA,0,NA,NA,NA,NA,30.22687912,-81.67572764,17RMP3497644119,8552,3.83244575,COLUMBIA COLLEGE-NAS JACKSONVILLE,V,4/17/2017,9/15/2017,8493,19,35,8
NA,17706520,NA,COLUMBIA COLLEGE-PATRICK AFB,500,1020 CENTRAL AVE E-1,PATRICK AFB,32925,BREVARD,NA,COLLEGE/UNIVERSITY,N/A,PRIVATE,PRIVATE,0,GEOPLAN,NCES 2015-2016 COLLEGE,NA,COLLEGE,COLLEGE,COLLEGE,NA,0,0,0,0,NA,NA,NA,0,0,0,0,NA,NA,NA,0,NA,NA,NA,NA,28.22060292,-80.60094697,17RNM3915621705,8563,10.41501518,COLUMBIA COLLEGE-PATRICK AFB,V,4/17/2017,9/15/2017,8502,19,35,6
4.3011E+11,423120,NA,COMPU-MED VOCATIONAL CAREERS CORP,647,2900 W 12TH AVE 3RD FL #28,HIALEAH,33012,MIAMI-DADE,NA,COLLEGE/UNIVERSITY,EURO AMERICAN INTNL INV,PRIVATE,PRIVATE,1971,GEOPLAN,NCES 2014-2015 COLLEGE,NA,COLLEGE,COLLEGE,COLLEGE,NA,822,0,0,0,NA,NO INFORMATION AVAILABLE,NA,0,0,0,0,NA,NA,NA,0,NA,NA,NA,NA,25.8486315,-80.30679794,17RNJ6946459104,6630,0.52450858,COMPU-MED VOCATIONAL CAREERS CORP,V,3/29/2016,9/15/2017,6798,19,35,1
1525770100R,133845,NA,CONCORDE CAREER INSTITUTE-JACKSONVILLE,621,7259 SALISBURY ROAD,JACKSONVILLE,32256,DUVAL,NA,COLLEGE/UNIVERSITY,LSOP 3 FL 8 LLC,PRIVATE,PRIVATE,1999,GEOPLAN,NCES 2014-2015 COLLEGE,NA,COLLEGE,COLLEGE,COLLEGE,NA,652,0,0,0,NA,NO INFORMATION AVAILABLE,NA,0,0,0,0,NA,NA,NA,0,NA,NA,NA,NA,30.23885955,-81.58174957,17RMP4402645397,6631,9.6351709,CONCORDE CAREER INSTITUTE-JACKSONVILLE,V,3/29/2016,9/15/2017,6799,19,35,1
5.1413E+11,133854,NA,CONCORDE CAREER INSTITUTE-MIRAMAR,528,10933 MARKS WAY,MIRAMAR,33025,BROWARD,NA,COLLEGE/UNIVERSITY,SUNBEAM DEV CORP,PRIVATE,PRIVATE,2008,GEOPLAN,NCES 2014-2015 COLLEGE,NA,COLLEGE,COLLEGE,COLLEGE,NA,640,0,0,0,NA,NO INFORMATION AVAILABLE,NA,0,0,0,0,NA,NA,NA,0,NA,NA,NA,NA,25.97895761,-80.29066048,17RNJ7100373546,6632,7.26890619,CONCORDE CAREER INSTITUTE-MIRAMAR,V,3/29/2016,9/15/2017,6800,19,35,2
3.02221E+14,460190,NA,CONCORDE CAREER INSTITUTE-ORLANDO,420,3444 MCCRORY PLACE,ORLANDO,32803,ORANGE,407-812-3060,COLLEGE/UNIVERSITY,DRA CRT ORLANDO CENTRAL CENTER,PRIVATE,PRIVATE,1974,GEOPLAN,GEOPLAN,NA,COLLEGE,COLLEGE,COLLEGE,NA,178,0,0,0,NA,NO INFORMATION AVAILABLE,NA,0,0,0,0,U,NA,NA,0,NA,NA,NA,NA,28.55985662,-81.34037885,17RMM6670859270,5592,2.09801561,CONCORDE CAREER INSTITUTE-ORLANDO,V,5/14/2012,9/15/2017,5455,19,35,1
182916ZZZ000005479800A,133863,NA,CONCORDE CAREER INSTITUTE-TAMPA,511,4202 W SPRUCE,TAMPA,33607,HILLSBOROUGH,NA,COLLEGE/UNIVERSITY,RL CONCORDE LLC,PRIVATE,PRIVATE,2001,GEOPLAN,NCES 2014-2015 COLLEGE,NA,COLLEGE,COLLEGE,COLLEGE,NA,411,0,0,0,NA,NO INFORMATION AVAILABLE,NA,0,0,0,0,NA,NA,NA,0,NA,NA,NA,NA,27.95916347,-82.51433885,17RLL5104193602,6633,3.33238329,CONCORDE CAREER INSTITUTE-TAMPA,V,3/29/2016,9/15/2017,6801,19,35,1
16 30 27 00000 310 3300,134574,NA,CORTIVA INSTITUTE-FLORIDA,412,4045 PARK BLVD,PINELLAS PARK,33781,PINELLAS,NA,COLLEGE/UNIVERSITY,CAYBOA LLC,PRIVATE,PRIVATE,1981,GEOPLAN,NCES 2015-2016 COLLEGE,NA,COLLEGE,COLLEGE,COLLEGE,NA,0,0,0,0,NA,NA,NA,0,0,0,0,NA,NA,NA,0,NA,NA,NA,NA,27.83968687,-82.68894158,17RLL3368080589,8588,1.29602047,CORTIVA INSTITUTE-FLORIDA,V,4/17/2017,9/15/2017,8526,19,35,1
3.02204E+14,NA,NA,CREALDE SCHOOL OF ARTS,,600 SAINT ANDREWS BLVD,WINTER PARK,32792,ORANGE,407-671-1886,COLLEGE/UNIVERSITY,CREALDE ARTS INC,PRIVATE,PRIVATE,1978,GEOPLAN,DTS 2006,NA,COLLEGE,COLLEGE,COLLEGE,NA,0,0,0,0,NA,NO INFORMATION AVAILABLE,NA,0,0,0,0,U,NA,NA,0,NA,5/16/2012,NA,NA,28.60320664,-81.32151057,17RMM6856664068,978,1.99974329,CREALDE SCHOOL OF ARTS,V,12/6/2006,9/15/2017,847,19,35,1
3.21421E+13,447014,NA,DAYTONA COLLEGE,270,425 SOUTH NOVA ROAD,ORMOND BEACH,32174,VOLUSIA,NA,COLLEGE/UNIVERSITY,MACKIN BRADLEY LLC,PRIVATE,PRIVATE,2009,GEOPLAN,NCES 2014-2015 COLLEGE,NA,COLLEGE,COLLEGE,COLLEGE,NA,276,0,0,0,NA,NO INFORMATION AVAILABLE,NA,0,0,0,0,NA,NA,NA,0,NA,NA,NA,NA,29.27015791,-81.08002439,17RMN9222637920,6638,3.51984922,DAYTONA COLLEGE,V,3/29/2016,9/15/2017,6802,19,35,1
3.21504E+13,NA,NA,DAYTONA STATE COLLEGE - ADVANCED TECHNOLOGY CENTER,1063,1770 TECHNOLOGY BOULEVARD,DAYTONA BEACH,32124,VOLUSIA,386-226-4100,COLLEGE/UNIVERSITY,DAYTONA STATE COLLEGE,STATE,PUBLIC,2002,GEOPLAN,FDOE COLLEGE 2016,NA,COLLEGE,COLLEGE,COLLEGE,NA,0,0,0,0,NA,NO INFORMATION AVAILABLE,NA,0,0,0,0,NA,NA,NA,0,NA,NA,NA,NA,29.23220705,-81.09872382,17RMN9040633717,7280,23.9260485,DAYTONA STATE COLLEGE - ADVANCED TECHNOLOGY CENTER,V,3/29/2016,9/15/2017,7415,19,35,6
3.31539E+13,133386,NA,DAYTONA STATE COLLEGE - DAYTONA BEACH CAMPUS,9275,1200 W INTERNATIONAL SPEEDWAY BLVD,DAYTONA BEACH,32114,VOLUSIA,386-506-3000,COLLEGE/UNIVERSITY,DAYTONA STATE COLLEGE,STATE,PUBLIC,2008,GEOPLAN,VOLUSIA COUNTY,NA,COLLEGE,COLLEGE,COLLEGE,NA,0,0,0,0,NA,NO INFORMATION AVAILABLE,(FORMERLY DAYTONA STATE COLLEGE),0,0,0,0,U,NA,NA,0,NA,5/16/2012,NA,NA,29.20182652,-81.0490376,17RMN9523330348,2182,91.68716666,DAYTONA STATE COLLEGE - DAYTONA BEACH CAMPUS,V,5/14/2012,9/15/2017,2045,19,35,6
3.01724E+13,NA,NA,DAYTONA STATE COLLEGE - DELAND CAMPUS,1241,1155 CR 4139,DELAND,32724,VOLUSIA,386-785-2000,COLLEGE/UNIVERSITY,DAYTONA STATE COLLEGE,STATE,PUBLIC,2005,GEOPLAN,DTS,NA,COLLEGE,COLLEGE,COLLEGE,NA,0,0,0,0,NA,NO INFORMATION AVAILABLE,(FORMERLY DAYTONA STATE COLLEGE - WEST CAMPUS),0,0,0,0,U,NA,NA,0,NA,5/16/2012,NA,NA,29.01200474,-81.24320437,17RMN7631509340,2705,64.95370117,DAYTONA STATE COLLEGE - DELAND CAMPUS,V,5/14/2012,9/15/2017,2568,19,35,6
3.11816E+13,NA,NA,DAYTONA STATE COLLEGE - DELTONA CAMPUS,889,2351 PROVIDENCE BLVD,DELTONA,32725,VOLUSIA,386-789-7302,COLLEGE/UNIVERSITY,DAYTONA STATE COLLEGE,STATE,PUBLIC,2007,GEOPLAN,VOLUSIA COUNTY,NA,COLLEGE,COLLEGE,COLLEGE,NA,0,0,0,0,NA,NO INFORMATION AVAILABLE,NA,0,0,0,0,U,NA,NA,0,NA,5/16/2012,NA,NA,28.92895453,-81.22138735,17RMN7842200135,650,613.7799274,DAYTONA STATE COLLEGE - DELTONA CAMPUS,V,5/14/2012,9/15/2017,674,19,35,6
08-11-31-0000-01010-0002,NA,NA,DAYTONA STATE COLLEGE - FLAGLER/PALM COAST CAMPUS,763,3000 PALM COAST PARKWAY EAST,PALM COAST,32137,FLAGLER,386-445-4030,COLLEGE/UNIVERSITY,DAYTONA STATE COLLEGE,STATE,PUBLIC,1995,GEOPLAN,DTS,NA,COLLEGE,COLLEGE,COLLEGE,NA,0,0,0,0,NA,NO INFORMATION AVAILABLE,(FORMERLY DAYTONA BEACH COMMUNITY COLLEGE - FLAGLER/P),0,0,0,0,U,NA,NA,0,NA,5/16/2012,NA,NA,29.55665468,-81.1929815,17RMN8130569676,1651,98.77508154,DAYTONA STATE COLLEGE - FLAGLER/PALM COAST CAMPUS,V,5/14/2012,9/15/2017,1508,19,35,6
3.4173E+13,NA,NA,DAYTONA STATE COLLEGE - NEW SMYRNA/EDGEWATER CAMPUS,506,940 10TH ST,NEW SMYRNA BEACH,32168,VOLUSIA,386-423-6300,COLLEGE/UNIVERSITY,DAYTONA STATE COLLEGE,STATE,PUBLIC,1989,GEOPLAN,DTS 2006,NA,COLLEGE,COLLEGE,COLLEGE,NA,0,0,0,0,NA,NO INFORMATION AVAILABLE,(FORMERLY DAYTONA STATE COLLEGE - SOUTH CAMPUS),0,0,0,0,U,NA,NA,0,NA,5/16/2012,NA,NA,28.99954152,-80.92652837,17RNN0715607937,727,94.52356587,DAYTONA STATE COLLEGE - NEW SMYRNA/EDGEWATER CAMPUS,V,5/14/2012,9/15/2017,749,19,35,6
5.14022E+11,482459,NA,DEVRY UNIVERSITY-FLORIDA,275,2300 SW 145TH AVE,MIRAMAR,33027,BROWARD,NA,COLLEGE/UNIVERSITY,RT MIRAMAR I LLC,PRIVATE,PRIVATE,2002,GEOPLAN,NCES 2014-2015 COLLEGE,NA,COLLEGE,COLLEGE,COLLEGE,NA,2770,0,0,0,NA,NO INFORMATION AVAILABLE,NA,0,0,0,0,NA,NA,NA,0,NA,NA,NA,NA,25.98749579,-80.34007504,17RNJ6605274466,6639,16.61974616,DEVRY UNIVERSITY-FLORIDA,V,3/29/2016,9/15/2017,6803,19,35,1
6.4247E+15,451060,NA,DIGITAL MEDIA ARTS COLLEGE,317,5400 BROKEN SOUND BLVD NW #100,BOCA RATON,33487,PALM BEACH,NA,COLLEGE/UNIVERSITY,"ZNT, LLC",PRIVATE,PRIVATE,1980,GEOPLAN,NCES 2014-2015 COLLEGE,NA,COLLEGE,COLLEGE,COLLEGE,NA,317,0,0,0,NA,NO INFORMATION AVAILABLE,NA,0,0,0,0,NA,NA,NA,0,NA,NA,NA,NA,26.39509058,-80.11031893,17RNK8873919745,6640,11.52733376,DIGITAL MEDIA ARTS COLLEGE,V,3/29/2016,9/15/2017,6804,19,35,1
10615-001-000,449481,NA,DRAGON RISES COLLEGE OF ORIENTAL MEDICINE,52,1000 NE 16TH AVE.,GAINESVILLE,32601,ALACHUA,NA,COLLEGE/UNIVERSITY,1000 NE 16TH AVE PARTNERS LLC,PRIVATE,PRIVATE,1983,GEOPLAN,NCES 2014-2015 COLLEGE,NA,COLLEGE,COLLEGE,COLLEGE,NA,0,0,0,0,NA,NO INFORMATION AVAILABLE,NA,0,0,0,0,NA,NA,NA,0,NA,NA,NA,NA,29.66710095,-82.3133625,17RLN7290382619,6641,5.04802021,DRAGON RISES COLLEGE OF ORIENTAL MEDICINE,V,3/29/2016,9/15/2017,6805,19,35,1
2004150052,439394,NA,EAST WEST COLLEGE OF NATURAL MEDICINE,95,3808 N TAMIAMI TRL,SARASOTA,34234,SARASOTA,941-355-9080X101,COLLEGE/UNIVERSITY,EAST WEST COLLEGE OF NATURAL M,PRIVATE,PRIVATE,1986,GEOPLAN,FDOE COLLEGE 2012,NA,COLLEGE,COLLEGE,COLLEGE,NA,0,0,0,0,NA,NO INFORMATION AVAILABLE,NA,0,0,0,0,U,NA,NA,0,NA,5/16/2012,NA,NA,27.36846975,-82.55159767,17RLL4655228203,3353,2.13891875,EAST WEST COLLEGE OF NATURAL MEDICINE,V,5/14/2012,9/15/2017,3215,19,35,1
24 361900    2,132693,NA,EASTERN FLORIDA STATE COLLEGE - COCOA CAMPUS,2525,1519 CLEARLAKE ROAD,COCOA,32922,BREVARD,321-632-1111,COLLEGE/UNIVERSITY,EASTERN FLORIDA STATE COLLEGE,STATE,PUBLIC,1963,GEOPLAN,FDOE COLLEGE 2016,NA,COLLEGE,COLLEGE,COLLEGE,NA,0,0,0,0,NA,NO INFORMATION AVAILABLE,NA,0,0,0,0,NA,NA,NA,0,NA,NA,NA,NA,28.38416092,-80.75703115,17RNM2380439783,7281,92.51574933,EASTERN FLORIDA STATE COLLEGE - COCOA CAMPUS,V,3/29/2016,9/15/2017,7416,19,35,4
27 370625  105,NA,NA,EASTERN FLORIDA STATE COLLEGE - MELBOURNE CAMPUS,3170,3865 N WICKHAM ROAD,MELBOURNE,32935,BREVARD,407-632-1111,COLLEGE/UNIVERSITY,EASTERN FLORIDA STATE COLLEGE,STATE,PUBLIC,1971,GEOPLAN,DTS,NA,COLLEGE,COLLEGE,COLLEGE,NA,0,0,0,0,NA,NO INFORMATION AVAILABLE,NA,0,0,0,0,U,NA,NA,0,NA,5/16/2012,NA,NA,28.17031389,-80.66893417,17RNM3250016113,3311,116.1772451,EASTERN FLORIDA STATE COLLEGE - MELBOURNE CAMPUS,V,12/6/2006,9/15/2017,3173,19,35,4
29 3704MZ    R,NA,NA,EASTERN FLORIDA STATE COLLEGE - PALM BAY CAMPUS,7039,250 COMMUNITY COLLEGE PARKWAY,PALM BAY,32909,BREVARD,321-632-1111,COLLEGE/UNIVERSITY,EASTERN FLORIDA STATE COLLEGE,STATE,PUBLIC,1992,GEOPLAN,DTS,NA,COLLEGE,COLLEGE,COLLEGE,NA,0,0,0,0,NA,NO INFORMATION AVAILABLE,(FORMERLY BREVARD COMMUNITY COLLEGE),0,0,0,0,U,NA,NA,0,NA,5/16/2012,NA,NA,27.99329811,-80.63031342,17RNL3635196515,3332,257.9588759,EASTERN FLORIDA STATE COLLEGE - PALM BAY CAMPUS,V,5/14/2012,9/15/2017,3194,19,35,4
21 352800  500,NA,NA,EASTERN FLORIDA STATE COLLEGE - TITUSVILLE CAMPUS,3085,1311 N US HIGHWAY 1,TITUSVILLE,32796,BREVARD,321-632-1111,COLLEGE/UNIVERSITY,EASTERN FLORIDA STATE COLLEGE,STATE,PUBLIC,1979,GEOPLAN,DTS,NA,COLLEGE,COLLEGE,COLLEGE,NA,0,0,0,0,NA,NO INFORMATION AVAILABLE,(FORMERLY BREVARD COMMUNITY COLLEGE NORTH CAMPUS),0,0,0,0,U,NA,NA,0,NA,5/16/2012,NA,NA,28.63492761,-80.82370203,17RNM1723167553,2711,113.06403,EASTERN FLORIDA STATE COLLEGE - TITUSVILLE CAMPUS,V,12/6/2006,9/15/2017,2574,19,35,4
16 32 10 00000 120 0200,133492,NA,ECKERD COLLEGE,1800,4200 54TH AVE S,ST PETERSBURG,33711,PINELLAS,727-867-1166,COLLEGE/UNIVERSITY,ECKERD COLLEGE,PRIVATE,PRIVATE,1963,GEOPLAN,PINELLAS COUNTY,NA,COLLEGE,COLLEGE,COLLEGE,NA,0,0,0,0,NA,NO INFORMATION AVAILABLE,NA,0,0,0,0,U,NA,NA,0,NA,NA,NA,NA,27.71424574,-82.68662222,17RLL3371866687,2239,194.3709534,ECKERD COLLEGE,V,1/11/2008,9/15/2017,2399,19,35,1
062030508000001A0,457183,NA,ECPI UNIVERSITY COLLEGE OF NURSING - ORLANDO,,660 CENTURY PT SUITE 1050,LAKE MARY,32746,SEMINOLE,407-562-9100,COLLEGE/UNIVERSITY,RINEHART RIDGE IV INC,PRIVATE,PRIVATE,2006,GEOPLAN,SEMINOLE COUNTY,NA,COLLEGE,COLLEGE,COLLEGE,NA,0,0,0,0,NA,NO INFORMATION AVAILABLE,NA,0,0,0,0,U,NA,NA,0,NA,NA,NA,NA,28.77717443,-81.35366198,17RMM6548083350,1440,9.72174839,ECPI UNIVERSITY COLLEGE OF NURSING - ORLANDO,V,4/17/2017,9/15/2017,1594,19,35,1
1.44524E+16,133508,NA,EDISON STATE COLLEGE - LEE COUNTY CAMPUS,16576,8099 COLLEGE PARKWAY,FORT MYERS,33919,LEE,239-489-9300,COLLEGE/UNIVERSITY,EDISON STATE COLLEGE,STATE,PUBLIC,1965,GEOPLAN,LEE COUNTY,NA,COLLEGE,COLLEGE,COLLEGE,NA,0,0,0,0,NA,NO INFORMATION AVAILABLE,NA,0,0,0,0,U,NA,NA,0,NA,5/16/2012,NA,NA,26.55220376,-81.88780204,17RMK1156837146,4284,141.4567448,EDISON STATE COLLEGE - LEE COUNTY CAMPUS,V,5/14/2012,9/15/2017,4149,19,35,1
0519100000R,133526,NA,EDWARD WATERS COLLEGE,769,1658 KINGS ROAD,JACKSONVILLE,32209,DUVAL,904-470-8000,COLLEGE/UNIVERSITY,EDWARD WATERS COLLEGE,PRIVATE,PRIVATE,1925,GEOPLAN,FDOE COLLEGE 2007,NA,COLLEGE,COLLEGE,COLLEGE,NA,0,0,0,0,NA,NO INFORMATION AVAILABLE,NA,0,0,0,0,U,NA,NA,0,NA,NA,NA,NA,30.34370356,-81.68368668,17RMP3428857070,511,46.14246314,EDWARD WATERS COLLEGE,V,11/6/2007,9/15/2017,538,19,35,1
3.21539E+13,133553,NA,EMBRY RIDDLE AERONAUTICAL UNIVERSITY - MAIN CAMPUS,2875,600 S CLYDE MORRIS BLVD,DAYTONA BEACH,32114,VOLUSIA,800-222-3728,COLLEGE/UNIVERSITY,EMBRY RIDDLE AERO UNIV INC,PRIVATE,PRIVATE,2007,GEOPLAN,VOLUSIA COUNTY,NA,COLLEGE,COLLEGE,COLLEGE,NA,0,0,0,0,NA,NO INFORMATION AVAILABLE,NA,0,0,0,0,U,NA,NA,0,NA,NA,NA,NA,29.18943457,-81.04945249,17RMN9519228975,1397,244.9132709,EMBRY RIDDLE AERONAUTICAL UNIVERSITY - MAIN CAMPUS,V,7/3/2007,9/15/2017,1551,19,35,1
NONE,426314,NA,EMBRY RIDDLE AERONAUTICAL UNIVERSITY - PATRICK AFB,122,1020 CENTRAL AVE,PATRICK AFB,32925,BREVARD,800-522-6787,COLLEGE/UNIVERSITY,N/A,PRIVATE,PRIVATE,0,GEOPLAN,FDOE COLLEGE 2007,NA,COLLEGE,COLLEGE,COLLEGE,NA,0,0,0,0,NA,NO INFORMATION AVAILABLE,NA,0,0,0,0,U,NA,NA,0,NA,NA,NA,NA,28.22059493,-80.60079482,17RNM3917121704,1027,10.41501518,EMBRY RIDDLE AERONAUTICAL UNIVERSITY - PATRICK AFB,V,11/6/2007,9/15/2017,896,19,35,6
1829203L4000000000170A,426314,NA,EMBRY-RIDDLE AERONAUTICAL UNIVERSITY,63,200 S HOOVER BLVD,TAMPA,33609,HILLSBOROUGH,800-522-6787,COLLEGE/UNIVERSITY,MARINER SQUARE PROPERTIES LLC,PRIVATE,PRIVATE,1973,GEOPLAN,FDOE COLLEGE 2007,NA,COLLEGE,COLLEGE,COLLEGE,NA,0,0,0,0,NA,NO INFORMATION AVAILABLE,(FORMERLY EMBRY RIDDLE AERONAUTICAL),0,0,0,0,U,NA,NA,0,NA,NA,NA,NA,27.94261757,-82.5338853,17RLL4909591793,862,5.3983582,EMBRY-RIDDLE AERONAUTICAL UNIVERSITY,V,5/14/2012,9/15/2017,1038,19,35,1
0984050000R,426314,NA,EMBRY-RIDDLE AERONAUTICAL UNIVERSITY,45,6801 ROOSEVELT BLVD,JACKSONVILLE,32212,DUVAL,800-522-6787,COLLEGE/UNIVERSITY,U S A AIR BASE,PRIVATE,PRIVATE,1954,GEOPLAN,FDOE COLLEGE 2007,NA,COLLEGE,COLLEGE,COLLEGE,NA,0,0,0,0,NA,NO INFORMATION AVAILABLE,NA,0,0,0,0,U,NA,NA,0,NA,NA,NA,NA,30.22641678,-81.67573638,17RMP3497444068,531,3.83244575,EMBRY-RIDDLE AERONAUTICAL UNIVERSITY,V,11/6/2007,9/15/2017,557,19,35,1
16 29 34 00110 000 0001,NA,NA,EMBRY-RIDDLE AERONAUTICAL UNIVERSITY - COAST GUARD AIR STATION,99,15100 RESCUE WAY,CLEARWATER,33762,PINELLAS,813-282-0902,COLLEGE/UNIVERSITY,USA COAST GUARD,PRIVATE,PRIVATE,1964,GEOPLAN,GEOPLAN,NA,COLLEGE,COLLEGE,COLLEGE,NA,0,0,0,0,NA,NO INFORMATION AVAILABLE,NA,0,0,0,0,NA,NA,NA,0,NA,NA,NA,NA,27.91294432,-82.6965136,17RLL3304788716,7426,8.40211094,EMBRY-RIDDLE AERONAUTICAL UNIVERSITY - COAST GUARD AIR STATION,V,7/29/2016,9/15/2017,7248,19,35,1
4.94218E+11,NA,NA,EMBRY-RIDDLE AERONAUTICAL UNIVERSITY - FORT LAUDERDALE,79,3201 W. COMMERCIAL BLVD,FORT LAUDERDALE,33309,BROWARD,954-497-3774,COLLEGE/UNIVERSITY,NTS REALTY HOLDINGS LIMITED,PRIVATE,PRIVATE,1989,GEOPLAN,GEOPLAN,NA,COLLEGE,COLLEGE,COLLEGE,NA,0,0,0,0,NA,NO INFORMATION AVAILABLE,NA,0,0,0,0,NA,NA,NA,0,NA,NA,NA,NA,26.18714842,-80.18997325,17RNJ8093896662,7427,6.69632226,EMBRY-RIDDLE AERONAUTICAL UNIVERSITY - FORT LAUDERDALE,V,7/29/2016,9/15/2017,7249,19,35,1
24-1S-23-0000-0001-0000,NA,NA,EMBRY-RIDDLE AERONAUTICAL UNIVERSITY - FORT WALTON BEACH-EGLIN,58,502 WEST D AVE,EGLIN AFB,32542,OKALOOSA,850-678-3137,COLLEGE/UNIVERSITY,N/A,PRIVATE,PRIVATE,1995,GEOPLAN,GEOPLAN,NA,COLLEGE,COLLEGE,COLLEGE,NA,0,0,0,0,NA,NO INFORMATION AVAILABLE,NA,0,0,0,0,NA,NA,NA,0,NA,NA,NA,NA,30.4805203,-86.5078127,16REU4724072136,7428,4.90048652,EMBRY-RIDDLE AERONAUTICAL UNIVERSITY - FORT WALTON BEACH-EGLIN,V,7/29/2016,9/15/2017,7250,19,35,6
01-2S-25-0000-0001-0000,NA,NA,EMBRY-RIDDLE AERONAUTICAL UNIVERSITY - FORT WALTON BEACH-HURLBURT FIELD,31,221 LUKASIK AVE,HURLBURT FIELD,32544,OKALOOSA,850-581-2106,COLLEGE/UNIVERSITY,U S GOVT,PRIVATE,PRIVATE,0,GEOPLAN,GEOPLAN,NA,COLLEGE,COLLEGE,COLLEGE,NA,0,0,0,0,NA,NO INFORMATION AVAILABLE,NA,0,0,0,0,NA,NA,NA,0,NA,NA,NA,NA,30.41968138,-86.69888222,16REU2891965329,7429,2.61007696,EMBRY-RIDDLE AERONAUTICAL UNIVERSITY - FORT WALTON BEACH-HURLBURT FIELD,V,7/29/2016,9/15/2017,7251,19,35,1
05-05-26-014190-000-01,NA,NA,EMBRY-RIDDLE AERONAUTICAL UNIVERSITY - JACKSONVILLE-FLEMING ISLAND,69,"1845 TOWN CENTER ROAD, BUILDING 300, SUITE 305",FLEMING ISLAND,32003,CLAY,904-579-3796,COLLEGE/UNIVERSITY,FLEMING ISLAND BUSINESS,PRIVATE,PRIVATE,2008,GEOPLAN,GEOPLAN,NA,COLLEGE,COLLEGE,COLLEGE,NA,0,0,0,0,NA,NO INFORMATION AVAILABLE,NA,0,0,0,0,NA,NA,NA,0,NA,NA,NA,NA,30.09347978,-81.71144099,17RMP3144729357,7430,5.89740859,EMBRY-RIDDLE AERONAUTICAL UNIVERSITY - JACKSONVILLE-FLEMING ISLAND,V,7/29/2016,9/15/2017,7252,19,35,1
1682950000R,NA,NA,EMBRY-RIDDLE AERONAUTICAL UNIVERSITY - JACKSONVILLE-NS MAYPORT,53,460 MASSEY AVENUE,JACKSONVILLE,32228,DUVAL,904-249-6700,COLLEGE/UNIVERSITY,RIBAULT BAY NAVAL RESERVATION,PRIVATE,PRIVATE,1900,GEOPLAN,GEOPLAN,NA,COLLEGE,COLLEGE,COLLEGE,NA,0,0,0,0,NA,NO INFORMATION AVAILABLE,NA,0,0,0,0,NA,NA,NA,0,NA,NA,NA,NA,30.38722417,-81.40922396,17RMP6068561765,7431,4.53186774,EMBRY-RIDDLE AERONAUTICAL UNIVERSITY - JACKSONVILLE-NS MAYPORT,V,7/29/2016,9/15/2017,7253,19,35,1
3.0313E+12,NA,NA,EMBRY-RIDDLE AERONAUTICAL UNIVERSITY - MIAMI,147,5600 N.W. 36TH ST,MIAMI,33122,MIAMI-DADE,305-871-3855,COLLEGE/UNIVERSITY,MIAMI-DADE COUNTY,PRIVATE,PRIVATE,2007,GEOPLAN,GEOPLAN,NA,COLLEGE,COLLEGE,COLLEGE,NA,0,0,0,0,NA,NO INFORMATION AVAILABLE,NA,0,0,0,0,NA,NA,NA,0,NA,NA,NA,NA,25.80673715,-80.28699993,17RNJ7147354475,7432,12.54068965,EMBRY-RIDDLE AERONAUTICAL UNIVERSITY - MIAMI,V,7/29/2016,9/15/2017,7254,19,35,3
013S311000000000,NA,NA,EMBRY-RIDDLE AERONAUTICAL UNIVERSITY - NAVAL AIR STATION PENSACOLA,113,250 CHAMBERS AVE,PENSACOLA,32508,ESCAMBIA,850-455-4529,COLLEGE/UNIVERSITY,UNITED STATES GOVERNMENT,PRIVATE,PRIVATE,1955,GEOPLAN,GEOPLAN,NA,COLLEGE,COLLEGE,COLLEGE,NA,0,0,0,0,NA,NO INFORMATION AVAILABLE,NA,0,0,0,0,NA,NA,NA,0,NA,NA,NA,NA,30.34929555,-87.2747798,16RDU7359157523,7434,9.63884772,EMBRY-RIDDLE AERONAUTICAL UNIVERSITY - NAVAL AIR STATION PENSACOLA,V,7/29/2016,9/15/2017,7256,19,35,2
3.12216E+14,NA,NA,EMBRY-RIDDLE AERONAUTICAL UNIVERSITY - ORLANDO,31,2000 N ALAFAYA TL,ORLANDO,32826,ORANGE,407-352-7575,COLLEGE/UNIVERSITY,ALAFAYA CORPORATE CENTER LC,PRIVATE,PRIVATE,2003,GEOPLAN,GEOPLAN,NA,COLLEGE,COLLEGE,COLLEGE,NA,0,0,0,0,NA,NO INFORMATION AVAILABLE,NA,0,0,0,0,NA,NA,NA,0,NA,NA,NA,NA,28.57269426,-81.20836293,17RMM7962360663,7433,2.64140713,EMBRY-RIDDLE AERONAUTICAL UNIVERSITY - ORLANDO,V,7/29/2016,9/15/2017,7255,19,35,4
27 362301        53,NA,NA,EMBRY-RIDDLE AERONAUTICAL UNIVERSITY - SPACE COAST,90,4450 W EAU GALLIE BLVD,MELBOURNE,32934,BREVARD,321-783-5020,COLLEGE/UNIVERSITY,PERIMETER CENTER INC,PRIVATE,PRIVATE,1988,GEOPLAN,GEOPLAN,NA,COLLEGE,COLLEGE,COLLEGE,NA,0,0,0,0,NA,NO INFORMATION AVAILABLE,NA,0,0,0,0,NA,NA,NA,0,NA,NA,NA,NA,28.1216085,-80.69935044,17RNM2952710710,7435,7.68172345,EMBRY-RIDDLE AERONAUTICAL UNIVERSITY - SPACE COAST,V,7/29/2016,9/15/2017,7257,19,35,1
183020ZZZ000005565000A,NA,NA,EMBRY-RIDDLE AERONAUTICAL UNIVERSITY - TAMPA,51,8102 CONDOR ST,TAMPA,33621,HILLSBOROUGH,813-828-3772,COLLEGE/UNIVERSITY,UNITED STATES OF AMERICA,PRIVATE,PRIVATE,1980,GEOPLAN,GEOPLAN,NA,COLLEGE,COLLEGE,COLLEGE,NA,0,0,0,0,NA,NO INFORMATION AVAILABLE,NA,0,0,0,0,NA,NA,NA,0,NA,NA,NA,NA,27.85042072,-82.48917607,17RLL5336981523,7436,4.32161328,EMBRY-RIDDLE AERONAUTICAL UNIVERSITY - TAMPA,V,7/29/2016,9/15/2017,7258,19,35,8
26397-000-000,426314,NA,EMBRY-RIDDLE AERONAUTICAL UNIVERSITY - TYNDALL AFB,74,921 BEACON BEACH RD,PANAMA CITY,32403,BAY,800-522-6787,COLLEGE/UNIVERSITY,UNITED STATES AIR FORCE,PRIVATE,PRIVATE,0,GEOPLAN,FDOE COLLEGE 2007,NA,COLLEGE,COLLEGE,COLLEGE,NA,0,0,0,0,NA,NO INFORMATION AVAILABLE,NA,0,0,0,0,U,NA,NA,0,NA,NA,NA,NA,30.07610292,-85.60570814,16RFU3438028038,800,6.29435515,EMBRY-RIDDLE AERONAUTICAL UNIVERSITY - TYNDALL AFB,V,7/29/2016,9/15/2017,977,19,35,2
3.05903E+12,409670,NA,EVEREST INSTITUTE-KENDALL,147,9020 SW 137TH AVE,MIAMI,33186,MIAMI-DADE,NA,COLLEGE/UNIVERSITY,KENDALL PAVILLION LLC &,PRIVATE,PRIVATE,1985,GEOPLAN,NCES 2014-2015 COLLEGE,NA,COLLEGE,COLLEGE,COLLEGE,NA,147,0,0,0,NA,NO INFORMATION AVAILABLE,NA,0,0,0,0,NA,NA,NA,0,NA,NA,NA,NA,25.68260726,-80.41796095,17RNJ5840540664,6642,1.6578508,EVEREST INSTITUTE-KENDALL,V,3/29/2016,9/15/2017,6806,19,35,1
3.42101E+12,135957,NA,EVEREST INSTITUTE-NORTH MIAMI,196,111 NW 183RD ST STE 200,MIAMI,33169,MIAMI-DADE,305-949-9500,COLLEGE/UNIVERSITY,DIVINE SQUARE LW LLC,PRIVATE,PRIVATE,1973,GEOPLAN,GEOPLAN,NA,COLLEGE,COLLEGE,COLLEGE,NA,1014,0,0,0,NA,NO INFORMATION AVAILABLE,NA,0,0,0,0,U,NA,NA,0,NA,NA,NA,NA,25.94301414,-80.20350056,17RNJ7975269616,5678,3.28368528,EVEREST INSTITUTE-NORTH MIAMI,V,5/14/2012,9/15/2017,5540,19,35,1
20290728A000002000010U,260293,NA,EVEREST UNIVERSITY,2460,3924 COCONUT PALM DRIVE,TAMPA,33619,HILLSBOROUGH,813-621-0041,COLLEGE/UNIVERSITY,FLA OWNER LLC,PRIVATE,PRIVATE,1985,GEOPLAN,FDOE COLLEGE 2007,NA,COLLEGE,COLLEGE,COLLEGE,NA,0,0,0,0,NA,NO INFORMATION AVAILABLE,(FORMERLY FLORIDA METROPOLITAN UNIVERSITY),0,0,0,0,U,NA,NA,0,NA,NA,NA,NA,27.98043164,-82.35033799,17RLL6720095769,1236,4.47569642,EVEREST UNIVERSITY,V,11/6/2007,9/15/2017,1257,19,35,1
2.42818E+17,367909,NA,EVEREST UNIVERSITY,367,995 E MEMORIAL BLVD SUITE 110,LAKELAND,33805,POLK,863-686-1444,COLLEGE/UNIVERSITY,NICKANNA CORP,PRIVATE,PRIVATE,1964,GEOPLAN,POLK COUNTY,NA,COLLEGE,COLLEGE,COLLEGE,NA,0,0,0,0,NA,NO INFORMATION AVAILABLE,(FORMERLY FLORIDA METROPOLITAN UNIVERSITY),0,0,0,0,U,NA,NA,0,NA,NA,NA,NA,28.05289527,-81.94593152,17RMM0703703423,2566,3.88975277,EVEREST UNIVERSITY,V,1/3/2008,9/15/2017,2718,19,35,1
2.92203E+14,136288,NA,EVEREST UNIVERSITY,634,5421 DIPLOMAT CR,ORLANDO,32810,ORANGE,407-628-5870,COLLEGE/UNIVERSITY,ORLANDO EXECUTIVE PARK LLC,PRIVATE,PRIVATE,1973,GEOPLAN,ORANGE COUNTY,NA,COLLEGE,COLLEGE,COLLEGE,NA,0,0,0,0,NA,NO INFORMATION AVAILABLE,NA,0,0,0,0,U,NA,NA,0,NA,NA,NA,NA,28.61105327,-81.3873727,17RMM6212964956,584,2.38057014,EVEREST UNIVERSITY,V,12/26/2011,9/15/2017,609,19,35,1
27 371903    C    C,NA,NA,EVEREST UNIVERSITY,392,2190 SARNO RD,MELBOURNE,32935,BREVARD,321-259-3211,COLLEGE/UNIVERSITY,SCHIPPERS-TAIVAH LLC,PRIVATE,PRIVATE,1962,GEOPLAN,GEOPLAN,NA,COLLEGE,COLLEGE,COLLEGE,NA,0,0,0,0,NA,NO INFORMATION AVAILABLE,(FORMERLY FLORIDA METROPOLITAN UNIVERSITY SARNO CAMPUS),0,0,0,0,U,NA,NA,0,NA,5/16/2012,NA,NA,28.12320874,-80.65749521,17RNM3363810898,1010,6.74608362,EVEREST UNIVERSITY,V,5/14/2012,9/15/2017,879,19,35,1
182834ZZZ000005411200A,137801,NA,EVEREST UNIVERSITY TAMPA,537,3319 W HILLSBOROUGH AVENUE,TAMPA,33614,HILLSBOROUGH,813-879-6000X139,COLLEGE/UNIVERSITY,HILLSBOROUGH CENTER INC,PRIVATE,PRIVATE,1983,GEOPLAN,FDOE COLLEGE 2007,NA,COLLEGE,COLLEGE,COLLEGE,NA,0,0,0,0,NA,NO INFORMATION AVAILABLE,(FORMERLY FLORIDA METROPOLITAN UNIVERSITY),0,0,0,0,U,NA,NA,0,NA,NA,NA,NA,27.99663281,-82.4975946,17RLL5273997733,892,3.16350271,EVEREST UNIVERSITY TAMPA,V,11/6/2007,9/15/2017,1068,19,35,1
1526560000R,438902,NA,EVEREST UNIVERSITY-JACKSONVILLE,570,8226 PHILLIPS HWY,JACKSONVILLE,32256,DUVAL,904-731-4949,COLLEGE/UNIVERSITY,TIAA SEASONED COMMERCIAL MORTG,PRIVATE,PRIVATE,1958,GEOPLAN,GEOPLAN,NA,COLLEGE,COLLEGE,COLLEGE,NA,1170,0,0,0,NA,NO INFORMATION AVAILABLE,NA,0,0,0,0,U,NA,NA,0,NA,NA,NA,NA,30.21779284,-81.58513148,17RMP4368943064,5542,10.56980011,EVEREST UNIVERSITY-JACKSONVILLE,V,5/14/2012,9/15/2017,5693,19,35,1
15 29 35 98332 000 0010,137810,NA,EVEREST UNIVERSITY-LARGO,439,1199 EAST BAY DRIVE,LARGO,33770,PINELLAS,NA,COLLEGE/UNIVERSITY,PHOENIX JR INC,PRIVATE,PRIVATE,1999,GEOPLAN,NCES 2014-2015 COLLEGE,NA,COLLEGE,COLLEGE,COLLEGE,NA,439,0,0,0,NA,NO INFORMATION AVAILABLE,NA,0,0,0,0,NA,NA,NA,0,NA,NA,NA,NA,27.91526463,-82.77583454,17RLL2524389084,6643,8.36532336,EVEREST UNIVERSITY-LARGO,V,3/29/2016,9/15/2017,6807,19,35,1
41-04-26-019238-008-01,445434,NA,EVEREST UNIVERSITY-ORANGE PARK,558,805 WELLS RD,ORANGE PARK,32073,CLAY,NA,COLLEGE/UNIVERSITY,ORANGE PARK COMMERCE CENTER,PRIVATE,PRIVATE,1989,GEOPLAN,NCES 2014-2015 COLLEGE,NA,COLLEGE,COLLEGE,COLLEGE,NA,558,0,0,0,NA,NO INFORMATION AVAILABLE,NA,0,0,0,0,NA,NA,NA,0,NA,NA,NA,NA,30.18882576,-81.70610191,17RMP3202739920,6644,3.01463457,EVEREST UNIVERSITY-ORANGE PARK,V,3/29/2016,9/15/2017,6808,19,35,1
4.84236E+11,134149,NA,EVEREST UNIVERSITY-POMPANO BEACH,1548,225 N. FEDERAL HWY.,POMPANO BEACH,33062,BROWARD,NA,COLLEGE/UNIVERSITY,225 NORTH FEDERAL HIGHWAY L L,PRIVATE,PRIVATE,1973,GEOPLAN,NCES 2014-2015 COLLEGE,NA,COLLEGE,COLLEGE,COLLEGE,NA,1548,0,0,0,NA,NO INFORMATION AVAILABLE,NA,0,0,0,0,NA,NA,NA,0,NA,NA,NA,NA,26.23390204,-80.10323853,17RNK8957001897,6645,1.80695345,EVEREST UNIVERSITY-POMPANO BEACH,V,3/29/2016,9/15/2017,6809,19,35,1
2.92404E+14,390701,NA,EVEREST UNIVERSITY-SOUTH ORLANDO,22535,9200 SOUTPARK CENTER LOOP,ORLANDO,32819,ORANGE,407-851-2525X174,COLLEGE/UNIVERSITY,LSAC ORLANDO L P,PRIVATE,PRIVATE,2003,GEOPLAN,GEOPLAN,NA,COLLEGE,COLLEGE,COLLEGE,NA,16022,0,0,0,NA,NO INFORMATION AVAILABLE,NA,0,0,0,0,U,NA,NA,0,NA,NA,NA,NA,28.43454973,-81.42690775,17RMM5819545415,5584,6.78447062,EVEREST UNIVERSITY-SOUTH ORLANDO,V,5/14/2012,9/15/2017,5447,19,35,1
6.42471E+15,385619,NA,EVERGLADES UNIVERSITY,2262,5002 T-REX AVENUE SUITE 100,BOCA RATON,33431,PALM BEACH,561-912-1211X109,COLLEGE/UNIVERSITY,BRE BOCA CORPORATE CENTER LLC,PRIVATE,PRIVATE,1971,GEOPLAN,GEOPLAN,NA,COLLEGE,COLLEGE,COLLEGE,NA,1161,0,0,0,NA,NO INFORMATION AVAILABLE,NA,0,0,0,0,U,NA,NA,0,NA,NA,NA,NA,26.39050065,-80.10951792,17RNK8882319237,5654,123.2750121,EVERGLADES UNIVERSITY,V,5/14/2012,9/15/2017,5516,19,35,1
1729010E4000002000020U,38561903,NA,EVERGLADES UNIVERSITY - TAMPA,62,5225 MEMORIAL HIGHWAY,TAMPA,33634,HILLSBOROUGH,NA,COLLEGE/UNIVERSITY,DECADE 80-XIV LP,PRIVATE,PRIVATE,1986,GEOPLAN,NCES 2015-2016 COLLEGE,NA,COLLEGE,COLLEGE,COLLEGE,NA,0,0,0,0,NA,NA,NA,0,0,0,0,NA,NA,NA,0,NA,NA,NA,NA,27.98231711,-82.55566834,17RLL4700796218,8585,3.37032123,EVERGLADES UNIVERSITY - TAMPA,V,4/17/2017,9/15/2017,8523,19,35,2
1.82131E+16,38561901,NA,EVERGLADES UNIVERSITY-ORLANDO,22,887 EAST ALTAMONTE DRIVE,ALTAMONTE SPRINGS,32701,SEMINOLE,NA,COLLEGE/UNIVERSITY,MDS ALTAMONTE CITY CENTRE LLC,PRIVATE,PRIVATE,1998,GEOPLAN,NCES 2014-2015 COLLEGE,NA,COLLEGE,COLLEGE,COLLEGE,NA,0,0,0,0,NA,NO INFORMATION AVAILABLE,NA,0,0,0,0,NA,NA,NA,0,NA,NA,NA,NA,28.66428964,-81.36042721,17RMM6478170846,6646,1.17875182,EVERGLADES UNIVERSITY-ORLANDO,V,3/29/2016,9/15/2017,6810,19,35,1
189050001,38561902,NA,EVERGLADES UNIVERSITY-SARASOTA,124,6001 LAKE OSPREY DRIVE #110,SARASOTA,34240,SARASOTA,NA,COLLEGE/UNIVERSITY,LWR COMMONS LTD,PRIVATE,PRIVATE,2006,GEOPLAN,NCES 2014-2015 COLLEGE,NA,COLLEGE,COLLEGE,COLLEGE,NA,0,0,0,0,NA,NO INFORMATION AVAILABLE,NA,0,0,0,0,NA,NA,NA,0,NA,NA,NA,NA,27.38363665,-82.44543381,17RLL5707229757,6647,6.74449888,EVERGLADES UNIVERSITY-SARASOTA,V,3/29/2016,9/15/2017,6811,19,35,1
15 28 01 88560 077 0300,NA,NA,FAITH COVENANT THEOLOGICAL SEMINARY,,1912 NEBRASKA AVE,PALM HARBOR,34683,PINELLAS,727-772-1440,COLLEGE/UNIVERSITY,FAITH COVENANT COMNTY CHURCH A,PRIVATE,PRIVATE,1989,GEOPLAN,FDOE COLLEGE 2007,NA,COLLEGE,COLLEGE,COLLEGE,NA,0,0,0,0,NA,NO INFORMATION AVAILABLE,NA,0,0,0,0,U,NA,NA,0,NA,5/16/2012,NA,NA,28.07865341,-82.75083887,17RLM2796307153,3447,1.643622,FAITH COVENANT THEOLOGICAL SEMINARY,V,11/6/2007,9/15/2017,3582,19,35,1
06902-001-000,NA,NA,FAITH TABERNACLE OF PRAISE SCHOOL OF MINISTRY,,5505 SW 63RD BLVD,GAINESVILLE,32608,ALACHUA,352-336-0907,COLLEGE/UNIVERSITY,FAITH TABERNACLE OF PRAISE,PRIVATE,PRIVATE,1998,GEOPLAN,FDOE COLLEGE 2007,NA,COLLEGE,COLLEGE,COLLEGE,NA,0,0,0,0,NA,NO INFORMATION AVAILABLE,NA,0,0,0,0,U,NA,NA,0,NA,5/16/2012,NA,NA,29.60314164,-82.40673988,17RLN6378075638,918,3.48023095,FAITH TABERNACLE OF PRAISE SCHOOL OF MINISTRY,V,11/6/2007,9/15/2017,787,19,35,1
2.92226E+14,NA,NA,FAMU COLLEGE OF LAW,71,201 BEGGS AVE,ORLANDO,32801,ORANGE,407-254-3268,COLLEGE/UNIVERSITY,FLORIDA A & M UNIVERSITY,STATE,PUBLIC,2006,GEOPLAN,GEOPLAN,NA,COLLEGE,COLLEGE,COLLEGE,NA,0,0,0,0,NA,NO INFORMATION AVAILABLE,NA,0,0,0,0,NA,NA,NA,0,NA,NA,NA,NA,28.54478113,-81.38326593,17RMM6250757613,7400,2.74818167,FAMU COLLEGE OF LAW,V,7/29/2016,9/15/2017,7223,19,35,4
730300000,NA,NA,FIRST COAST TECHNICAL COLLEGE,431,3640 GAINES RD,ST AUGUSTINE,32084,ST JOHNS,904-547-3542,COLLEGE/UNIVERSITY,FIRST COAST TECHNICAL COLLEGE,STATE,PUBLIC,1992,GEOPLAN,GEOPLAN,NA,COLLEGE,COLLEGE,COLLEGE,NA,0,0,0,0,NA,NO INFORMATION AVAILABLE,NA,0,0,0,0,NA,NA,NA,0,NA,NA,NA,NA,29.93981708,-81.36251977,17RMP6501512172,7409,94.8369326,FIRST COAST TECHNICAL COLLEGE,V,7/29/2016,9/15/2017,7232,19,35,1
2016900000,133711,NA,FLAGLER COLLEGE - MAIN CAMPUS,2591,74 KING ST,ST AUGUSTINE,32084,ST JOHNS,904-829-6481,COLLEGE/UNIVERSITY,FLAGLER COLLEGE INC,PRIVATE,PRIVATE,1885,GEOPLAN,NEFRPC,PRIVATE COLLEGE,COLLEGE,COLLEGE,COLLEGE,NA,0,0,0,0,NA,NO INFORMATION AVAILABLE,NA,0,0,0,0,U,NA,NA,0,NA,NA,NA,NA,29.8928214,-81.31504142,17RMP6958206951,110,48.79247793,FLAGLER COLLEGE - MAIN CAMPUS,V,5/14/2012,9/15/2017,146,19,35,1
212851  K0002,444990,NA,FLAGLER COLLEGE-TALLAHASSEE,397,444 APPLEYARD DR,TALLAHASSEE,32304,LEON,NA,COLLEGE/UNIVERSITY,TALLAHASSEE COMMUNITY,PRIVATE,PRIVATE,1977,GEOPLAN,NCES 2014-2015 COLLEGE,NA,COLLEGE,COLLEGE,COLLEGE,NA,462,0,0,0,NA,NO INFORMATION AVAILABLE,NA,0,0,0,0,NA,NA,NA,0,NA,NA,NA,NA,30.44332423,-84.34091786,16RGU5536070915,6648,208.3351036,FLAGLER COLLEGE-TALLAHASSEE,V,3/29/2016,9/15/2017,6812,19,35,1
26659-000-000,NA,NA,FLORIDA A & M UNIVERSITY,258,4000 FRANKFORD AVE,PANAMA CITY,32405,BAY,850-872-4184,COLLEGE/UNIVERSITY,FLORIDA A & M UNIVERSITY,STATE,PUBLIC,1964,GEOPLAN,FDOE COLLEGE 2007,NA,COLLEGE,COLLEGE,COLLEGE,NA,0,0,0,0,NA,NO INFORMATION AVAILABLE,NA,0,0,0,0,U,NA,NA,0,NA,5/16/2012,NA,NA,30.21351437,-85.6980727,16RFU2530443161,2500,9.97860541,FLORIDA A & M UNIVERSITY,V,11/6/2007,9/15/2017,2653,19,35,4
2.13625E+12,133650,NA,FLORIDA A & M UNIVERSITY,93,405 W PENSACOLA ST,TALLAHASSEE,32301,LEON,850-599-3000,COLLEGE/UNIVERSITY,FLORIDA A & M UNIVERSITY,STATE,PUBLIC,1976,GEOPLAN,FDOE COLLEGE 2007,NA,COLLEGE,COLLEGE,COLLEGE,NA,0,0,0,0,NA,NO INFORMATION AVAILABLE,NA,0,0,0,0,U,NA,NA,0,NA,5/16/2012,NA,NA,30.43820544,-84.28478854,16RGU6076670475,3435,3.59277199,FLORIDA A & M UNIVERSITY,V,11/6/2007,9/15/2017,3570,19,35,4
4.10121E+12,NA,NA,FLORIDA A&M UNIVERSITY,9600,444 GAMBLE STREET,TALLAHASSEE,32310,LEON,850-412-5930,COLLEGE/UNIVERSITY,FLORIDA A & M UNIVERSITY,STATE,PUBLIC,1949,GEOPLAN,FDOE PUBLIC 2007,NA,COLLEGE,COLLEGE,COLLEGE,DR. HODGE,0,0,0,0,NA,NO INFORMATION AVAILABLE,NA,0,0,0,0,U,NA,NA,0,3/1/2012,NA,NA,NA,30.42839831,-84.29012529,16RGU6027969376,3982,371.739576,FLORIDA A&M UNIVERSITY,V,5/29/2007,9/15/2017,3981,19,35,4
324425P2000070020,462035,NA,FLORIDA ACADEMY,136,4387 COLONIAL BOULEVARD,FORT MYERS,33966,LEE,NA,COLLEGE/UNIVERSITY,T F COMMERCIAL INVESTMENTS LLC,PRIVATE,PRIVATE,1979,GEOPLAN,NCES 2015-2016 COLLEGE,NA,COLLEGE,COLLEGE,COLLEGE,NA,0,0,0,0,NA,NA,NA,0,0,0,0,NA,NA,NA,0,NA,NA,NA,NA,26.60862864,-81.8244244,17RMK1792243353,8590,5.79336187,FLORIDA ACADEMY,V,4/17/2017,9/15/2017,8527,19,35,1
2.13625E+12,NA,NA,FLORIDA ASSOCIATION OF COMMUNITY COLLEGES,,816 S MARTIN LUTHER KING J,TALLAHASSEE,32301,LEON,850-222-2327,COLLEGE/UNIVERSITY,STATE OF FLORIDA,STATE,PUBLIC,1989,GEOPLAN,FDOE COLLEGE 2012,NA,COLLEGE,COLLEGE,COLLEGE,NA,0,0,0,0,NA,NO INFORMATION AVAILABLE,NA,0,0,0,0,U,NA,NA,0,NA,5/16/2012,NA,NA,30.4350569,-84.28504858,16RGU6074970126,3436,3.72035821,FLORIDA ASSOCIATION OF COMMUNITY COLLEGES,V,5/14/2012,9/15/2017,3571,19,35,3
5.0421E+11,NA,NA,FLORIDA ATLANTIC UNIVERSITY,,220 SE 2ND AVE,FORT LAUDERDALE,33301,BROWARD,754-355-5200,COLLEGE/UNIVERSITY,FLORIDA ATLANTIC UNIVERSITY,STATE,PUBLIC,2000,GEOPLAN,BROWARD COUNTY,NA,COLLEGE,COLLEGE,COLLEGE,NA,0,0,0,0,NA,NO INFORMATION AVAILABLE,NA,0,0,0,0,U,NA,NA,0,NA,5/16/2012,NA,NA,26.11982593,-80.14066009,17RNJ8591589238,2899,0.15351395,FLORIDA ATLANTIC UNIVERSITY,V,5/14/2012,9/15/2017,2765,19,35,5
5.04137E+11,NA,NA,FLORIDA ATLANTIC UNIVERSITY,3317,2912 COLLEGE AVE,FORT LAUDERDALE,33314,BROWARD,754-236-1000,COLLEGE/UNIVERSITY,FLORIDA ATLANTIC UNIVERSITY,STATE,PUBLIC,1963,GEOPLAN,BROWARD COUNTY,NA,COLLEGE,COLLEGE,COLLEGE,NA,0,0,0,0,NA,NO INFORMATION AVAILABLE,NA,0,0,0,0,U,NA,NA,0,NA,5/16/2012,NA,NA,26.08180293,-80.23610604,17RNJ7639784967,2887,169.7641881,FLORIDA ATLANTIC UNIVERSITY,V,5/14/2012,9/15/2017,3040,19,35,5
6.43472E+15,133669,NA,FLORIDA ATLANTIC UNIVERSITY - BOCA RATON CAMPUS,13978,500 NW 20TH ST,BOCA RATON,33431,PALM BEACH,561-297-3000,COLLEGE/UNIVERSITY,FLORIDA ATLANTIC UNIVERSITY,STATE,PUBLIC,1968,GEOPLAN,PALM BEACH COUNTY,NA,COLLEGE,COLLEGE,COLLEGE,NA,0,0,0,0,NA,NO INFORMATION AVAILABLE,NA,0,0,0,0,U,NA,NA,0,3/1/2012,5/16/2012,NA,NA,26.37042986,-80.09955541,17RNK8983217021,4375,715.2847526,FLORIDA ATLANTIC UNIVERSITY - BOCA RATON CAMPUS,V,5/14/2012,9/15/2017,4240,19,35,5
1408-411-0001-000-4,NA,NA,FLORIDA ATLANTIC UNIVERSITY - HARBOR BRANCH,9892,5600 US-1,FORT PIERCE,34950,ST LUCIE,772-465-7156,COLLEGE/UNIVERSITY,FLORIDA ATLANTIC UNIVERSITY,STATE,PUBLIC,1997,GEOPLAN,GEOPLAN,NA,COLLEGE,COLLEGE,COLLEGE,NA,0,0,0,0,NA,NO INFORMATION AVAILABLE,NA,0,0,0,0,NA,NA,NA,0,NA,NA,NA,NA,27.53473005,-80.35724258,17RNL6346845828,7371,506.2193609,FLORIDA ATLANTIC UNIVERSITY - HARBOR BRANCH,V,7/29/2016,9/15/2017,7506,19,35,5
3.04241E+16,NA,NA,FLORIDA ATLANTIC UNIVERSITY - JD MACARTHUR CAMP,2581,5353 PARKSIDE DR,JUPITER,33458,PALM BEACH,561-799-8500,COLLEGE/UNIVERSITY,FLORIDA ATLANTIC UNIVERSITY,STATE,PUBLIC,1998,GEOPLAN,PALM BEACH COUNTY,NA,COLLEGE,COLLEGE,COLLEGE,NA,0,0,0,0,NA,NO INFORMATION AVAILABLE,NA,0,0,0,0,U,NA,NA,0,3/1/2012,5/16/2012,NA,NA,26.88616374,-80.11675067,17RNK8772274133,4347,132.0997318,FLORIDA ATLANTIC UNIVERSITY - JD MACARTHUR CAMP,V,5/14/2012,9/15/2017,4212,19,35,5
0679510000R,NA,NA,FLORIDA BEACON CLG AND SEMINARY,,1181 LAKE SHORE BLVD,JACKSONVILLE,32205,DUVAL,904-786-5033,COLLEGE/UNIVERSITY,OPEN BIBLE CHURCHES INC,PRIVATE,PRIVATE,1955,GEOPLAN,FDOE COLLEGE 2007,NA,COLLEGE,COLLEGE,COLLEGE,NA,0,0,0,0,NA,NO INFORMATION AVAILABLE,NA,0,0,0,0,U,NA,NA,0,NA,5/16/2012,NA,NA,30.3033219,-81.73889884,17RMP2895252628,497,0.47439232,FLORIDA BEACON CLG AND SEMINARY,V,11/6/2007,9/15/2017,262,19,35,1
5.14115E+11,487384,NA,FLORIDA CAREER COLLEGE,650,7891 PINES BOULEVARD,PEMBROKE PINES,33024,BROWARD,NA,COLLEGE/UNIVERSITY,7841 PINES BOULEVARD LLC,PRIVATE,PRIVATE,1974,GEOPLAN,NCES 2015-2016 COLLEGE,NA,COLLEGE,COLLEGE,COLLEGE,NA,84,1,8,0,NA,NA,NA,0,0,0,0,NA,NA,NA,0,NA,NA,NA,NA,26.01093433,-80.24624144,17RNJ7542977112,8567,1.98475623,FLORIDA CAREER COLLEGE,V,4/17/2017,9/15/2017,8505,19,35,1
4.24327E+14,487393,NA,FLORIDA CAREER COLLEGE - WEST PALM BEACH,683,6058 OKEECHOBEE BLVD,WEST PALM BEACH,33417,PALM BEACH,561-689-0550,COLLEGE/UNIVERSITY,DAROSY INC,PRIVATE,PRIVATE,1980,GEOPLAN,FDOE COLLEGE 2012,NA,COLLEGE,COLLEGE,COLLEGE,NA,0,0,0,0,NA,NO INFORMATION AVAILABLE,NA,0,0,0,0,U,NA,NA,0,NA,5/16/2012,NA,NA,26.7051851,-80.13675333,17RNK8587154073,269,3.00094219,FLORIDA CAREER COLLEGE - WEST PALM BEACH,V,7/29/2016,9/15/2017,448,19,35,1
8.43452E+15,487445,NA,FLORIDA CAREER COLLEGE-BOYNTON BEACH,426,1749 NORTH CONGRESS AVENUE,BOYNTON BEACH,33426,PALM BEACH,NA,COLLEGE/UNIVERSITY,CATALINA SHOPPES FLA LLC,PRIVATE,PRIVATE,1987,GEOPLAN,NCES 2015-2016 COLLEGE,NA,COLLEGE,COLLEGE,COLLEGE,NA,0,0,0,0,NA,NA,NA,0,0,0,0,NA,NA,NA,0,NA,NA,NA,NA,26.54237663,-80.09226362,17RNK9042536071,8595,2.58990448,FLORIDA CAREER COLLEGE-BOYNTON BEACH,V,4/17/2017,9/15/2017,8532,19,35,1
4.3011E+11,487409,NA,FLORIDA CAREER COLLEGE-HIALEAH,679,3750 WEST 18 AVENUE,HIALEAH,33012,MIAMI-DADE,NA,COLLEGE/UNIVERSITY,SC WESTLAND PROMENADE LTD PRTS,PRIVATE,PRIVATE,1990,GEOPLAN,NCES 2015-2016 COLLEGE,NA,COLLEGE,COLLEGE,COLLEGE,NA,0,0,0,0,NA,NA,NA,0,0,0,0,NA,NA,NA,0,NA,NA,NA,NA,25.85564702,-80.31926564,17RNJ6821059875,8565,3.78161382,FLORIDA CAREER COLLEGE-HIALEAH,V,4/17/2017,9/15/2017,8504,19,35,1
0165180020R,487436,NA,FLORIDA CAREER COLLEGE-JACKSONVILLE,439,6600 YOUNGERMAN CIRCLE,JACKSONVILLE,32244,DUVAL,NA,COLLEGE/UNIVERSITY,CATHEDRAL-BAYPOINTE ASSOCIATES,PRIVATE,PRIVATE,1988,GEOPLAN,NCES 2015-2016 COLLEGE,NA,COLLEGE,COLLEGE,COLLEGE,NA,0,0,0,0,NA,NA,NA,0,0,0,0,NA,NA,NA,0,NA,NA,NA,NA,30.19604823,-81.75106709,17RMP2770340748,8554,6.96034485,FLORIDA CAREER COLLEGE-JACKSONVILLE,V,4/17/2017,9/15/2017,8495,19,35,1
3.04936E+12,487463,NA,FLORIDA CAREER COLLEGE-KENDALL,6227,11731 MILLS DRIVE,MIAMI,33183,MIAMI-DADE,NA,COLLEGE/UNIVERSITY,WRC PROPERTIES INC,PRIVATE,PRIVATE,2008,GEOPLAN,NCES 2015-2016 COLLEGE,NA,COLLEGE,COLLEGE,COLLEGE,NA,0,0,0,0,NA,NA,NA,0,0,0,0,NA,NA,NA,0,NA,NA,NA,NA,25.69100885,-80.38343715,17RNJ6186541610,8579,0.38895602,FLORIDA CAREER COLLEGE-KENDALL,V,4/17/2017,9/15/2017,8517,19,35,1
4.94124E+11,487418,NA,FLORIDA CAREER COLLEGE-LAUDERDALE LAKES,785,3383 NORTH STATE ROAD 7,LAUDERDALE LAKES,33319,BROWARD,NA,COLLEGE/UNIVERSITY,LAKES MALL INVESTMENT LLC,PRIVATE,PRIVATE,1970,GEOPLAN,NCES 2015-2016 COLLEGE,NA,COLLEGE,COLLEGE,COLLEGE,NA,0,0,0,0,NA,NA,NA,0,0,0,0,NA,NA,NA,0,NA,NA,NA,NA,26.16595565,-80.20531351,17RNJ7942094305,8581,6.77249689,FLORIDA CAREER COLLEGE-LAUDERDALE LAKES,V,4/17/2017,9/15/2017,8519,19,35,1
4.84124E+11,487454,NA,FLORIDA CAREER COLLEGE-MARGATE,521,3271 N. STATE ROAD 7,MARGATE,33063,BROWARD,NA,COLLEGE/UNIVERSITY,G&I VI S FL PORTFOLIO SPE LLC,PRIVATE,PRIVATE,1988,GEOPLAN,NCES 2015-2016 COLLEGE,NA,COLLEGE,COLLEGE,COLLEGE,NA,0,0,0,0,NA,NA,NA,0,0,0,0,NA,NA,NA,0,NA,NA,NA,NA,26.27087723,-80.20342277,17RNK7953705927,8572,19.08958125,FLORIDA CAREER COLLEGE-MARGATE,V,4/17/2017,9/15/2017,8510,19,35,1
3.04008E+12,133997,NA,FLORIDA CAREER COLLEGE-MIAMI,502,1321 SW 107 AVE STE 201B,MIAMI,33174,MIAMI-DADE,305-553-6065,COLLEGE/UNIVERSITY,FIGUEREDO CENTER LTD,PRIVATE,PRIVATE,1989,GEOPLAN,GEOPLAN,NA,COLLEGE,COLLEGE,COLLEGE,NA,4362,0,0,0,NA,NO INFORMATION AVAILABLE,NA,0,0,0,0,U,NA,NA,0,NA,NA,NA,NA,25.7565806,-80.36763133,17RNJ6341748879,5662,1.21945087,FLORIDA CAREER COLLEGE-MIAMI,V,5/14/2012,9/15/2017,5524,19,35,1
3.02222E+14,487472,NA,FLORIDA CAREER COLLEGE-ORLANDO,500,989 NORTH SEMORAN BOULEVARD,ORLANDO,32807,ORANGE,NA,COLLEGE/UNIVERSITY,KIMZAY OF FLORIDA INC,PRIVATE,PRIVATE,1970,GEOPLAN,NCES 2015-2016 COLLEGE,NA,COLLEGE,COLLEGE,COLLEGE,NA,0,0,0,0,NA,NA,NA,0,0,0,0,NA,NA,NA,0,NA,NA,NA,NA,28.5604625,-81.30975269,17RMM6970359329,8562,7.97823706,FLORIDA CAREER COLLEGE-ORLANDO,V,4/17/2017,9/15/2017,8501,19,35,1
20290728G000001000031U,487427,NA,FLORIDA CAREER COLLEGE-TAMPA,457,9950 PRINCESS PALM AVENUE SUITE 100,TAMPA,33619,HILLSBOROUGH,NA,COLLEGE/UNIVERSITY,SABAL VENTURE LLC,PRIVATE,PRIVATE,1988,GEOPLAN,NCES 2015-2016 COLLEGE,NA,COLLEGE,COLLEGE,COLLEGE,NA,0,0,0,0,NA,NA,NA,0,0,0,0,NA,NA,NA,0,NA,NA,NA,NA,27.98068669,-82.33693531,17RLL6851995783,8584,5.04561476,FLORIDA CAREER COLLEGE-TAMPA,V,4/17/2017,9/15/2017,8522,19,35,1
2.82325E+14,NA,NA,FLORIDA CHRISTIAN UNIVERSITY,500,5950 LAKEHURST DR,ORLANDO,32819,ORANGE,407-896-0101,COLLEGE/UNIVERSITY,LAKEHURST BUILDING LLC,PRIVATE,PRIVATE,1986,GEOPLAN,FDOE COLLEGE 2007,NA,COLLEGE,COLLEGE,COLLEGE,NA,0,0,0,0,NA,NO INFORMATION AVAILABLE,NA,0,0,0,0,U,NA,NA,0,NA,5/16/2012,NA,NA,28.45274344,-81.46081683,17RMM5488247443,606,3.00980307,FLORIDA CHRISTIAN UNIVERSITY,V,11/6/2007,9/15/2017,630,19,35,1
1526122200R,434715,NA,FLORIDA COASTAL SCHOOL OF LAW,1742,8787 BAYPINE RD,JACKSONVILLE,32256,DUVAL,904-680-7700,COLLEGE/UNIVERSITY,AGNL FCSL LLC,PRIVATE,PRIVATE,1990,GEOPLAN,FDOE COLLEGE 2007,NA,COLLEGE,COLLEGE,COLLEGE,NA,0,0,0,0,NA,NO INFORMATION AVAILABLE,NA,0,0,0,0,U,NA,NA,0,NA,5/16/2012,NA,NA,30.23267366,-81.58024138,17RMP4416844710,551,9.71919512,FLORIDA COASTAL SCHOOL OF LAW,V,11/6/2007,9/15/2017,577,19,35,1
192823ZZZ000005953200T,133809,NA,FLORIDA COLLEGE,489,119 N GLEN ARVEN AVE,TEMPLE TERRACE,33617,HILLSBOROUGH,813-988-5131,COLLEGE/UNIVERSITY,FLORIDA COLLEGE,PRIVATE,PRIVATE,1925,GEOPLAN,GEOPLAN,NA,COLLEGE,COLLEGE,COLLEGE,NA,478,0,0,0,NA,NO INFORMATION AVAILABLE,NA,0,0,0,0,U,NA,NA,0,NA,NA,NA,NA,28.03317353,-82.38347679,17RLM6400701649,5475,137.6358519,FLORIDA COLLEGE,V,5/14/2012,9/15/2017,5247,19,35,1
2.92328E+14,434441,NA,FLORIDA COLLEGE OF INTEGRATIVE MEDICINE,151,7100 LAKE ELLENOR DR,ORLANDO,32809,ORANGE,407-888-8689,COLLEGE/UNIVERSITY,LT INTERNATIONAL LLC,PRIVATE,PRIVATE,1965,GEOPLAN,FDOE COLLEGE 2007,NA,COLLEGE,COLLEGE,COLLEGE,NA,0,0,0,0,NA,NO INFORMATION AVAILABLE,NA,0,0,0,0,U,NA,NA,0,NA,5/16/2012,NA,NA,28.46367527,-81.40177318,17RMM6066748634,610,3.84415841,FLORIDA COLLEGE OF INTEGRATIVE MEDICINE,V,11/6/2007,9/15/2017,634,19,35,1
1108900179,438294,NA,FLORIDA COLLEGE OF NATURAL HEALTH,143,616 67TH STREET CIR E,BRADENTON,34208,MANATEE,941-744-1244,COLLEGE/UNIVERSITY,BZ LLC,PRIVATE,PRIVATE,2004,GEOPLAN,FDOE COLLEGE 2007,NA,COLLEGE,COLLEGE,COLLEGE,NA,0,0,0,0,NA,NO INFORMATION AVAILABLE,NA,0,0,0,0,U,NA,NA,0,NA,NA,NA,NA,27.49490263,-82.47763374,17RLL5403442121,5683,2.04818417,FLORIDA COLLEGE OF NATURAL HEALTH,V,11/6/2007,9/15/2017,5545,19,35,1
2.92127E+14,438285,NA,FLORIDA COLLEGE OF NATURAL HEALTH-MAITLAND,412,2600 LAKE LUCIEN DRIVE SUITE#240,MAITLAND,32751,ORANGE,NA,COLLEGE/UNIVERSITY,MAITLAND FORUM SPE LLC,PRIVATE,PRIVATE,1985,GEOPLAN,NCES 2014-2015 COLLEGE,NA,COLLEGE,COLLEGE,COLLEGE,NA,418,0,0,0,NA,NO INFORMATION AVAILABLE,NA,0,0,0,0,NA,NA,NA,0,NA,NA,NA,NA,28.62984676,-81.39710059,17RMM6118567041,6650,14.60178322,FLORIDA COLLEGE OF NATURAL HEALTH-MAITLAND,V,3/29/2016,9/15/2017,6814,19,35,1
3.53034E+12,420103,NA,FLORIDA COLLEGE OF NATURAL HEALTH-MIAMI,138,7925 NW 12TH ST STE 201,MIAMI,33126,MIAMI-DADE,NA,COLLEGE/UNIVERSITY,ADLER OFFICE TR,PRIVATE,PRIVATE,1982,GEOPLAN,NCES 2014-2015 COLLEGE,NA,COLLEGE,COLLEGE,COLLEGE,NA,202,0,0,0,NA,NO INFORMATION AVAILABLE,NA,0,0,0,0,NA,NA,NA,0,NA,NA,NA,NA,25.78355893,-80.32538081,17RNJ6763951888,6651,4.3852989,FLORIDA COLLEGE OF NATURAL HEALTH-MIAMI,V,3/29/2016,9/15/2017,6815,19,35,2
4.84215E+11,387925,NA,FLORIDA COLLEGE OF NATURAL HEALTH-POMPANO BEACH,181,2001 W SAMPLE RD STE 100,POMPANO BEACH,33064,BROWARD,NA,COLLEGE/UNIVERSITY,SAMPLE EXECUTIVE CENTER LLC,PRIVATE,PRIVATE,1987,GEOPLAN,NCES 2014-2015 COLLEGE,NA,COLLEGE,COLLEGE,COLLEGE,NA,203,0,0,0,NA,NO INFORMATION AVAILABLE,NA,0,0,0,0,NA,NA,NA,0,NA,NA,NA,NA,26.27529944,-80.15049579,17RNK8481906450,6652,3.55256125,FLORIDA COLLEGE OF NATURAL HEALTH-POMPANO BEACH,V,3/29/2016,9/15/2017,6816,19,35,1
1.54012E+12,441423,NA,FLORIDA EDUCATION INSTITUTE,257,5818 SW 8TH ST,MIAMI,33144,MIAMI-DADE,NA,COLLEGE/UNIVERSITY,THE SOCIETY OF SAINT PAUL,PRIVATE,PRIVATE,1948,GEOPLAN,NCES 2014-2015 COLLEGE,NA,COLLEGE,COLLEGE,COLLEGE,NA,316,0,0,0,NA,NO INFORMATION AVAILABLE,NA,0,0,0,0,NA,NA,NA,0,NA,NA,NA,NA,25.76319397,-80.29056284,17RNJ7114249651,6653,1.22185802,FLORIDA EDUCATION INSTITUTE,V,3/29/2016,9/15/2017,6817,19,35,1
01-4S-17-07470-000,135160,NA,FLORIDA GATEWAY COLLEGE,4671,HIGHWAY 90 EAST,LAKE CITY,32025,COLUMBIA,NA,COLLEGE/UNIVERSITY,FLORIDA GATEWAY COLLEGE,STATE,PUBLIC,1964,GEOPLAN,NCES 2014-2015 COLLEGE,NA,COLLEGE,COLLEGE,COLLEGE,NA,2912,0,0,0,NA,NO INFORMATION AVAILABLE,NA,0,0,0,0,NA,NA,NA,0,NA,NA,NA,NA,30.17586029,-82.56873202,17RLP4895839312,6654,145.1582215,FLORIDA GATEWAY COLLEGE,V,3/29/2016,9/15/2017,6818,19,35,4
4.10122E+16,NA,NA,FLORIDA GATEWAY COLLEGE - DIXIE CENTER,,64 NE 121ST STREET,CROSS CITY,32628,DIXIE,352-498-0190,COLLEGE/UNIVERSITY,FLORIDA GATEWAY COLLEGE,STATE,PUBLIC,1975,GEOPLAN,FDOE COLLEGE 2016,NA,COLLEGE,COLLEGE,COLLEGE,NA,0,0,0,0,NA,NO INFORMATION AVAILABLE,NA,0,0,0,0,NA,NA,NA,0,NA,NA,NA,NA,29.6356108,-83.12487326,17RKN9429280296,7282,0.15452573,FLORIDA GATEWAY COLLEGE - DIXIE CENTER,V,3/29/2016,9/15/2017,7417,19,35,4
31-08-15-0000-0005-0000,NA,NA,FLORIDA GATEWAY COLLEGE - GILCHRIST CENTER,83,2821 E. BELL AVENUE,BELL,32619,GILCHRIST,352-463-0073,COLLEGE/UNIVERSITY,FLORIDA GATEWAY COLLEGE,STATE,PUBLIC,1997,GEOPLAN,FDOE COLLEGE 2016,NA,COLLEGE,COLLEGE,COLLEGE,NA,0,0,0,0,NA,NO INFORMATION AVAILABLE,NA,0,0,0,0,NA,NA,NA,0,NA,NA,NA,NA,29.7519621,-82.85571264,17RLN2056192744,7283,2.58565441,FLORIDA GATEWAY COLLEGE - GILCHRIST CENTER,V,3/29/2016,9/15/2017,7418,19,35,4
29-3S-19-0000-0000-0765,NA,NA,FLORIDA GATEWAY COLLEGE - PUBLIC SERVICE TRAINING CENTER OLUSTEE,199,25030 U.S. HWY 90,OLUSTEE,32072,BAKER,386-752-1822,COLLEGE/UNIVERSITY,FLORIDA GATEWAY COLLEGE,STATE,PUBLIC,1945,GEOPLAN,FDOE COLLEGE 2016,NA,COLLEGE,COLLEGE,COLLEGE,NA,0,0,0,0,NA,NO INFORMATION AVAILABLE,NA,0,0,0,0,NA,NA,NA,0,NA,NA,NA,NA,30.20260313,-82.44440426,17RLP6096742117,7284,6.19481474,FLORIDA GATEWAY COLLEGE - PUBLIC SERVICE TRAINING CENTER OLUSTEE,V,3/29/2016,9/15/2017,7419,19,35,4
1.34625E+16,433660,NA,FLORIDA GULF COAST UNIVERSITY,14976,10501 FGCU BLVD S,FORT MYERS,33913,LEE,NA,COLLEGE/UNIVERSITY,FLORIDA GULF COAST UNIVERSITY,STATE,PUBLIC,1997,GEOPLAN,LEE COUNTY,NA,COLLEGE,COLLEGE,COLLEGE,NA,0,0,0,0,NA,NO INFORMATION AVAILABLE,NA,0,0,0,0,U,NA,NA,0,NA,5/16/2012,NA,NA,26.46425474,-81.77430785,17RMK2281527331,4292,824.8930145,FLORIDA GULF COAST UNIVERSITY,V,1/1/2008,9/15/2017,4157,19,35,2
19015440002,NA,NA,FLORIDA GULF COAST UNIVERSITY - NAPLES RENAISSANCE ACADEMY,55,1010 5TH AVE S,NAPLES,34102,COLLIER,NA,COLLEGE/UNIVERSITY,FLORIDA GULF COAST UNIVERSITY,STATE,PUBLIC,1972,GEOPLAN,GEOPLAN,NA,COLLEGE,COLLEGE,COLLEGE,NA,0,0,0,0,NA,NO INFORMATION AVAILABLE,NA,0,0,0,0,U,NA,NA,0,NA,NA,NA,NA,26.14177754,-81.79313729,17RMJ2071991627,351,3.5925146,FLORIDA GULF COAST UNIVERSITY - NAPLES RENAISSANCE ACADEMY,V,7/29/2016,9/15/2017,232,19,35,2
2.92217E+14,476814,NA,FLORIDA INSTITUTE OF RECORDING SOUND AND TECHNOLOGY,487,2309 SILVER STAR ROAD,ORLANDO,32804,ORANGE,NA,COLLEGE/UNIVERSITY,SILVER STAR ASSOCIATES LTD,PRIVATE,PRIVATE,1987,GEOPLAN,NCES 2014-2015 COLLEGE,NA,COLLEGE,COLLEGE,COLLEGE,NA,170,0,0,0,NA,NO INFORMATION AVAILABLE,NA,0,0,0,0,NA,NA,NA,0,NA,NA,NA,NA,28.57873242,-81.41148725,17RMM5976061383,6655,2.71164348,FLORIDA INSTITUTE OF RECORDING SOUND AND TECHNOLOGY,V,3/29/2016,9/15/2017,6819,19,35,1
28 370900   16,133881,NA,FLORIDA INSTITUTE OF TECHNOLOGY,6255,150 WEST UNIVERSITY BOULEVAR,MELBOURNE,32901,BREVARD,321-674-8000,COLLEGE/UNIVERSITY,FLORIDA INSTITUTE OF TECHNOLOG,PRIVATE,PRIVATE,1971,GEOPLAN,DTS 2006,NA,COLLEGE,COLLEGE,COLLEGE,NA,0,0,0,0,NA,NO INFORMATION AVAILABLE,NA,0,0,0,0,U,NA,NA,0,NA,NA,NA,NA,28.06576727,-80.62304868,17RNM3704004545,1018,128.8269396,FLORIDA INSTITUTE OF TECHNOLOGY,V,12/6/2006,9/15/2017,887,19,35,1
28 370275    1    9,NA,NA,FLORIDA INSTITUTE OF TECHNOLOGY,147,1308 RIVER DR,MELBOURNE,32901,BREVARD,321-674-7281,COLLEGE/UNIVERSITY,FLORIDA INSTITUTE OF TECHNOLOGY,STATE,PUBLIC,1938,GEOPLAN,FDOE COLLEGE 2007,NA,COLLEGE,COLLEGE,COLLEGE,NA,0,0,0,0,NA,NO INFORMATION AVAILABLE,NA,0,0,0,0,U,NA,NA,0,NA,5/16/2012,NA,NA,28.07631627,-80.6005938,17RNM3924305721,1024,3.07068683,FLORIDA INSTITUTE OF TECHNOLOGY,V,11/6/2007,9/15/2017,893,19,35,1
141S306100004002,133942,NA,FLORIDA INSTITUTE OF ULTRASOUND INC,80,8800 UNIVERSITY PKY STE A4,PENSACOLA,32514,ESCAMBIA,NA,COLLEGE/UNIVERSITY,CRITTENDEN J JAY & LETA D,PRIVATE,PRIVATE,1985,GEOPLAN,NCES 2014-2015 COLLEGE,NA,COLLEGE,COLLEGE,COLLEGE,NA,52,0,0,0,NA,NO INFORMATION AVAILABLE,NA,0,0,0,0,NA,NA,NA,0,NA,NA,NA,NA,30.52456639,-87.22089433,16RDU7880876935,6656,1.80169161,FLORIDA INSTITUTE OF ULTRASOUND INC,V,3/29/2016,9/15/2017,6820,19,35,1
6.2222E+11,NA,NA,FLORIDA INTERNATIONAL UNIVERSITY - BISCAYNE BAY CAMPUS,4570,3000 NE 151ST ST,MIAMI,33181,MIAMI-DADE,305-919-5500,COLLEGE/UNIVERSITY,FLORIDA INTERNATIONAL UNIVERSITY,STATE,PUBLIC,1975,GEOPLAN,MIAMI-DADE COUNTY,NA,COLLEGE,COLLEGE,COLLEGE,NA,0,0,0,0,NA,NO INFORMATION AVAILABLE,(FORMERLY FIU - BISCAYNE BAY CAMPUS),0,0,0,0,U,NA,NA,0,NA,5/16/2012,NA,NA,25.91024181,-80.13963758,17RNJ8617066026,3848,191.2958403,FLORIDA INTERNATIONAL UNIVERSITY - BISCAYNE BAY CAMPUS,V,5/14/2012,9/15/2017,3711,19,35,6
3.04005E+12,NA,NA,FLORIDA INTERNATIONAL UNIVERSITY - CENTER FOR ENGINEERING & APPLIED SCIENCE,2350,10555 W FLAGLER ST,MIAMI,33172,MIAMI-DADE,305-348-2522,COLLEGE/UNIVERSITY,FLORIDA INTERNATIONAL UNIVERSITY,STATE,PUBLIC,1980,GEOPLAN,MIAMI-DADE COUNTY,NA,COLLEGE,COLLEGE,COLLEGE,NA,0,0,0,0,NA,NO INFORMATION AVAILABLE,(FORMERLY FIU - CENTER FOR ENGINEERING & APPLIED SCIENCE),0,0,0,0,U,NA,NA,0,NA,5/16/2012,NA,NA,25.77003986,-80.3677855,17RNJ6339450370,5345,35.93292141,FLORIDA INTERNATIONAL UNIVERSITY - CENTER FOR ENGINEERING & APPLIED SCIENCE,V,5/14/2012,9/15/2017,5256,19,35,6
5.14022E+11,NA,NA,FLORIDA INTERNATIONAL UNIVERSITY - MIRAMAR,600,1930 SW 145 AVE,MIRAMAR,33027,BROWARD,954-438-8600,COLLEGE/UNIVERSITY,FLORIDA INTERNATIONAL UNIVERSITY,STATE,PUBLIC,2014,GEOPLAN,GEOPLAN,NA,COLLEGE,COLLEGE,COLLEGE,NA,0,0,0,0,NA,NO INFORMATION AVAILABLE,NA,0,0,0,0,NA,NA,NA,0,NA,NA,NA,NA,25.99218718,-80.33982931,17RNJ6607474985,7347,21.83439308,FLORIDA INTERNATIONAL UNIVERSITY - MIRAMAR,V,7/29/2016,9/15/2017,7482,19,35,6
1.021E+11,NA,NA,FLORIDA INTERNATIONAL UNIVERSITY - THE METROPOLITAN CENTER,510,150 SE 2ND AVE,MIAMI,33131,MIAMI-DADE,305-349-1251,COLLEGE/UNIVERSITY,FLORIDA INTERNATIONAL UNIVERSITY,STATE,PUBLIC,0,GEOPLAN,MIAMI-DADE COUNTY,NA,COLLEGE,COLLEGE,COLLEGE,NA,0,0,0,0,NA,NO INFORMATION AVAILABLE,(FORMERLY FIU - THE METROPOLITAN CENTER),0,0,0,0,U,NA,NA,0,NA,5/16/2012,NA,NA,25.76315258,-80.19081245,17RNJ8114549704,3777,3.28200436,FLORIDA INTERNATIONAL UNIVERSITY - THE METROPOLITAN CENTER,V,5/14/2012,9/15/2017,3640,19,35,6
2.3234E+11,NA,NA,FLORIDA INTERNATIONAL UNIVERSITY - THE WOLFSONIAN,2350,1001 WASHINGTON AVE,MIAMI BEACH,33139,MIAMI-DADE,305-531-1001,COLLEGE/UNIVERSITY,FLORIDA INTERNATIONAL UNIVERSITY,STATE,PUBLIC,1927,GEOPLAN,MIAMI-DADE COUNTY,NA,COLLEGE,COLLEGE,COLLEGE,NA,0,0,0,0,NA,NO INFORMATION AVAILABLE,(FORMERLY FIU - THE WOLFSONIAN-FIU),0,0,0,0,U,NA,NA,0,NA,5/16/2012,NA,NA,25.78091434,-80.13242675,17RNJ8698751708,3852,0.42643353,FLORIDA INTERNATIONAL UNIVERSITY - THE WOLFSONIAN,V,5/14/2012,9/15/2017,3715,19,35,6
3.04007E+12,133951,NA,FLORIDA INTERNATIONAL UNIVERSITY - UNIVERSITY PARK CAMPUS,47545,11200 SW 8TH ST,MIAMI,33199,MIAMI-DADE,305-348-2000,COLLEGE/UNIVERSITY,FLORIDA INTERNATIONAL UNIVERSITY,STATE,PUBLIC,1972,GEOPLAN,MIAMI-DADE COUNTY,NA,COLLEGE,COLLEGE,COLLEGE,NA,0,0,0,0,NA,NO INFORMATION AVAILABLE,(FORMERLY FIU - UNIVERSITY PARK CAMPUS),0,0,0,0,U,NA,NA,0,NA,5/16/2012,NA,NA,25.75737405,-80.3762066,17RNJ6255648963,5340,343.0884707,FLORIDA INTERNATIONAL UNIVERSITY - UNIVERSITY PARK CAMPUS,V,5/14/2012,9/15/2017,5251,19,35,6
2667 25 00072080000900,133960,NA,FLORIDA KEYS COMMUNITY COLLEGE - MAIN CAMPUS,675,5901 W JR COLLEGE ROAD,KEY WEST,33040,MONROE,305-296-9081,COLLEGE/UNIVERSITY,FLORIDA KEYS COMMUNITY COLLEGE,STATE,PUBLIC,1996,GEOPLAN,MONROE COUNTY,NA,COLLEGE,COLLEGE,COLLEGE,NA,0,0,0,0,NA,NO INFORMATION AVAILABLE,(FORMERLY FLORIDA KEYS COMMUNITY COLLEGE),0,0,0,0,U,NA,NA,0,NA,5/16/2012,NA,NA,24.58253057,-81.7439743,17RMH2467318927,4382,117.32589,FLORIDA KEYS COMMUNITY COLLEGE - MAIN CAMPUS,V,5/14/2012,9/15/2017,4247,19,35,3
1566 32 00104800000000,NA,NA,FLORIDA KEYS COMMUNITY COLLEGE - MIDDLE KEYS CENTER,238,900 SOMBRERO ROAD,MARATHON,33050,MONROE,305-743-2133,COLLEGE/UNIVERSITY,FLORIDA KEYS COMMUNITY COLLEGE,STATE,PUBLIC,1997,GEOPLAN,FDOE COLLEGE 2016,NA,COLLEGE,COLLEGE,COLLEGE,NA,0,0,0,0,NA,NO INFORMATION AVAILABLE,NA,0,0,0,0,NA,NA,NA,0,NA,NA,NA,NA,24.7032323,-81.07869338,17RMH9204032090,7285,41.41714317,FLORIDA KEYS COMMUNITY COLLEGE - MIDDLE KEYS CENTER,V,3/29/2016,9/15/2017,7420,19,35,3
0563 38 00418340000000,NA,NA,FLORIDA KEYS COMMUNITY COLLEGE - UPPER KEYS CENTER,120,89951 US HIGHWAY 1,TAVERNIER,33070,MONROE,305-852-8007,COLLEGE/UNIVERSITY,FLORIDA KEYS COMMUNITY COLLEGE,STATE,PUBLIC,2004,GEOPLAN,FDOE COLLEGE 2016,NA,COLLEGE,COLLEGE,COLLEGE,NA,0,0,0,0,NA,NO INFORMATION AVAILABLE,NA,0,0,0,0,NA,NA,NA,0,NA,NA,NA,NA,24.99386993,-80.53807139,17RNH4661664348,7286,20.76710416,FLORIDA KEYS COMMUNITY COLLEGE - UPPER KEYS CENTER,V,3/29/2016,9/15/2017,7421,19,35,3
3.42117E+12,133979,NA,FLORIDA MEMORIAL COLLEGE - MAIN CAMPUS,1129,15800 NW 42ND AVE,OPA LOCKA,33054,MIAMI-DADE,305-626-3600,COLLEGE/UNIVERSITY,FLORIDA MEMORIAL COLLEGE INC,PRIVATE,PRIVATE,1967,GEOPLAN,MIAMI-DADE COUNTY,NA,COLLEGE,COLLEGE,COLLEGE,NA,0,0,0,0,NA,NO INFORMATION AVAILABLE,NA,0,0,0,0,U,NA,NA,0,NA,NA,NA,NA,25.91824438,-80.27072892,17RNJ7303566833,1161,50.76427748,FLORIDA MEMORIAL COLLEGE - MAIN CAMPUS,V,6/1/2006,9/15/2017,1184,19,35,1
4.30022E+11,408844,NA,FLORIDA NATIONAL COLLEGE,4029,4425 W 20TH AVE,HIALEAH,33012,MIAMI-DADE,305-821-3333,COLLEGE/UNIVERSITY,AMERICAN EDUCATION ENTERPRISE,PRIVATE,PRIVATE,1987,GEOPLAN,MIAMI-DADE COUNTY,NA,COLLEGE,COLLEGE,COLLEGE,NA,0,0,0,0,NA,NO INFORMATION AVAILABLE,NA,0,0,0,0,U,NA,NA,0,NA,NA,NA,NA,25.860925,-80.3216693,17RNJ6796660458,758,4.57423916,FLORIDA NATIONAL COLLEGE,V,6/1/2006,9/15/2017,500,19,35,1
4.30021E+11,40884402,NA,FLORIDA NATIONAL UNIVERSITY TRAINING CENTER,483,4206 WEST 12 AVE,HIALEAH,33012,MIAMI-DADE,NA,COLLEGE/UNIVERSITY,HIALEAH SQUARE GP,PRIVATE,PRIVATE,1985,GEOPLAN,NCES 2014-2015 COLLEGE,NA,COLLEGE,COLLEGE,COLLEGE,NA,0,0,0,0,NA,NO INFORMATION AVAILABLE,NA,0,0,0,0,NA,NA,NA,0,NA,NA,NA,NA,25.85986815,-80.30782622,17RNJ6935460348,6657,0.54863113,FLORIDA NATIONAL UNIVERSITY TRAINING CENTER,V,3/29/2016,9/15/2017,6821,19,35,1
3.04912E+12,40884401,NA,FLORIDA NATIONAL UNIVERSITY-SOUTH CAMPUS,1029,11865 SW 26 ST SUITE. H3,MIAMI,33175,MIAMI-DADE,NA,COLLEGE/UNIVERSITY,UNITED STATES DEVELOPMENT LTD,PRIVATE,PRIVATE,1987,GEOPLAN,NCES 2014-2015 COLLEGE,NA,COLLEGE,COLLEGE,COLLEGE,NA,0,0,0,0,NA,NO INFORMATION AVAILABLE,NA,0,0,0,0,NA,NA,NA,0,NA,NA,NA,NA,25.74797367,-80.38699929,17RNJ6147947917,6658,1.16835633,FLORIDA NATIONAL UNIVERSITY-SOUTH CAMPUS,V,3/29/2016,9/15/2017,6822,19,35,1
2.52707E+17,482936,NA,FLORIDA POLYTECHNIC UNIVERSITY,1300,4700 RESEARCH WAY,LAKELAND,33805,POLK,NA,COLLEGE/UNIVERSITY,FLORIDA POLYTECHNIC UNIVERSITY,STATE,PUBLIC,2014,GEOPLAN,NCES 2014-2015 COLLEGE,NA,COLLEGE,COLLEGE,COLLEGE,NA,540,0,0,0,NA,NO INFORMATION AVAILABLE,NA,0,0,0,0,NA,NA,NA,0,NA,NA,NA,NA,28.15077738,-81.85131861,17RMM1641114198,6659,171.0825509,FLORIDA POLYTECHNIC UNIVERSITY,V,3/29/2016,9/15/2017,6823,19,35,1
07158-000-000,134024,NA,FLORIDA SCHOOL OF MASSAGE,64,6421 SW 13TH ST,GAINESVILLE,32608,ALACHUA,NA,COLLEGE/UNIVERSITY,FLORIDA SCHOOL OF MASSAGE INC,PRIVATE,PRIVATE,1961,GEOPLAN,NCES 2015-2016 COLLEGE,NA,COLLEGE,COLLEGE,COLLEGE,NA,0,0,0,0,NA,NA,NA,0,0,0,0,NA,NA,NA,0,NA,NA,NA,NA,29.59346485,-82.33825096,17RLN7040074487,8556,8.48368632,FLORIDA SCHOOL OF MASSAGE,V,4/17/2017,9/15/2017,8497,19,35,1
2.32825E+17,NA,NA,FLORIDA SCHOOL OF PREACHING,,1807 S FLORODA AVE,LAKELAND,33803,POLK,NA,COLLEGE/UNIVERSITY,SOUTH FLA AVE CHURCH OF CHRIST,PRIVATE,PRIVATE,1925,GEOPLAN,POLK COUNTY,NA,COLLEGE,COLLEGE,COLLEGE,NA,0,0,0,0,NA,NO INFORMATION AVAILABLE,NA,0,0,0,0,U,NA,NA,0,NA,5/16/2012,NA,NA,28.02172593,-81.95767878,17RML0585599979,2569,1.31871731,FLORIDA SCHOOL OF PREACHING,V,1/3/2008,9/15/2017,2721,19,35,1
11950-000-000,457350,NA,FLORIDA SCHOOL OF TRADITIONAL MIDWIFERY,51,810 E UNIVERSITY AVE,GAINESVILLE,32601,ALACHUA,NA,COLLEGE/UNIVERSITY,FLORIDA SCHOOL OF TRADITIONAL,PRIVATE,PRIVATE,1900,GEOPLAN,NCES 2014-2015 COLLEGE,NA,COLLEGE,COLLEGE,COLLEGE,NA,49,0,0,0,NA,NO INFORMATION AVAILABLE,NA,0,0,0,0,NA,NA,NA,0,NA,NA,NA,NA,29.65226583,-82.31583796,17RLN7264580978,6660,0.68962388,FLORIDA SCHOOL OF TRADITIONAL MIDWIFERY,V,3/29/2016,9/15/2017,6824,19,35,1
4.12309E+11,NA,NA,FLORIDA SOUTHWESTERN STATE COLLEGE - CHARLOTTE COUNTY CAMPUS,6908,26300 AIRPORT RD,PUNTA GORDA,33950,CHARLOTTE,NA,COLLEGE/UNIVERSITY,FLORIDA SOUTHWESTERN STATE COLLEGE,STATE,PUBLIC,1997,GEOPLAN,CHARLOTTE COUNTY,NA,COLLEGE,COLLEGE,COLLEGE,NA,0,0,0,0,NA,NO INFORMATION AVAILABLE,(FORMERLY EDISON COMMUNITY COLLEGE - NEW CAMPUS),0,0,0,0,U,NA,NA,0,NA,5/16/2012,NA,NA,26.92290436,-82.01900216,17RLK9882778304,2773,171.1527518,FLORIDA SOUTHWESTERN STATE COLLEGE - CHARLOTTE COUNTY CAMPUS,V,5/14/2012,9/15/2017,2636,19,35,4
55425012000,NA,NA,FLORIDA SOUTHWESTERN STATE COLLEGE - COLLIER COUNTY CAMPUS,3199,7007 LELY CULTURAL PKY,NAPLES,34113,COLLIER,239-732-3700,COLLEGE/UNIVERSITY,FLORIDA SOUTHWESTERN STATE COLLEGE,STATE,PUBLIC,1992,GEOPLAN,GEOPLAN,NA,COLLEGE,COLLEGE,COLLEGE,NA,0,0,0,0,NA,NO INFORMATION AVAILABLE,(FORMERLY EDISON COMMUNITY COLLEGE),0,0,0,0,U,NA,NA,0,NA,5/16/2012,NA,NA,26.10293951,-81.70051663,17RMJ2995487272,2854,79.25166214,FLORIDA SOUTHWESTERN STATE COLLEGE - COLLIER COUNTY CAMPUS,V,5/14/2012,9/15/2017,3008,19,35,4
4 29 43 10 A00 0001.0100,NA,NA,FLORIDA SOUTHWESTERN STATE COLLEGE - HENDRY/GLADES CENTER,761,1092 COWBOY WAY,LABELLE,33935,HENDRY,863-674-0408,COLLEGE/UNIVERSITY,FLORIDA SOUTHWESTERN STATE COLLEGE,STATE,PUBLIC,1994,GEOPLAN,GEOPLAN,NA,COLLEGE,COLLEGE,COLLEGE,NA,0,0,0,0,NA,NO INFORMATION AVAILABLE,NA,0,0,0,0,U,NA,NA,0,NA,5/16/2012,NA,NA,26.74788151,-81.4189661,17RMK5834058580,5631,18.85107593,FLORIDA SOUTHWESTERN STATE COLLEGE - HENDRY/GLADES CENTER,V,5/14/2012,9/15/2017,5494,19,35,4
1.44524E+16,NA,NA,FLORIDA SOUTHWESTERN STATE COLLEGE - LEE COUNTY CAMPUS,5709,8099 COLLEGE PARKWAY,FORT MYERS,33919,LEE,239-489-9300,COLLEGE/UNIVERSITY,FLORIDA SOUTHWESTERN STATE COLLEGE,STATE,PUBLIC,1965,GEOPLAN,FDOE COLLEGE 2016,NA,COLLEGE,COLLEGE,COLLEGE,NA,0,0,0,0,NA,NO INFORMATION AVAILABLE,NA,0,0,0,0,NA,NA,NA,0,NA,NA,NA,NA,26.55122593,-81.88735697,17RMK1161237037,7287,141.4567448,FLORIDA SOUTHWESTERN STATE COLLEGE - LEE COUNTY CAMPUS,V,3/29/2016,9/15/2017,7422,19,35,4
0021452000R,NA,NA,FLORIDA STATE COLLEGE AT JACKSONVILLE,3662,5640 NEW WORLD AVE,JACKSONVILLE,32221,DUVAL,904-779-4200,COLLEGE/UNIVERSITY,FLORIDA STATE COLLEGE AT JACKSONVILLE,STATE,PUBLIC,2007,GEOPLAN,GEOPLAN,NA,COLLEGE,COLLEGE,COLLEGE,NA,0,0,0,0,NA,NO INFORMATION AVAILABLE,NA,0,0,0,0,NA,NA,NA,0,NA,NA,NA,NA,30.25031672,-81.89072825,17RMP1430646859,7392,130.0028088,FLORIDA STATE COLLEGE AT JACKSONVILLE,V,7/29/2016,9/15/2017,7215,19,35,10
0707801002R,133702,NA,FLORIDA STATE COLLEGE AT JACKSONVILLE ADVANCED TECHNOLOGY CENTER,482,401 W STATE ST,JACKSONVILLE,32202,DUVAL,904-598-5600,COLLEGE/UNIVERSITY,FLORIDA STATE COLLEGE AT JACKSONVILLE,STATE,PUBLIC,1982,GEOPLAN,GEOPLAN,NA,COLLEGE,COLLEGE,COLLEGE,NA,0,0,0,0,NA,NO INFORMATION AVAILABLE,NA,0,0,0,0,U,NA,NA,0,NA,5/16/2012,NA,NA,30.33603643,-81.66134623,17RMP3643056207,5537,17.11033551,FLORIDA STATE COLLEGE AT JACKSONVILLE ADVANCED TECHNOLOGY CENTER,V,5/14/2012,9/15/2017,5688,19,35,10
0023220005R,NA,NA,FLORIDA STATE COLLEGE AT JACKSONVILLE AVIATION CENTER,300,13450 LAKE FRETWELL ST,JACKSONVILLE,32221,DUVAL,904-633-8100,COLLEGE/UNIVERSITY,FLORIDA STATE COLLEGE AT JACKSONVILLE,STATE,PUBLIC,1986,GEOPLAN,GEOPLAN,NA,COLLEGE,COLLEGE,COLLEGE,NA,0,0,0,0,NA,NO INFORMATION AVAILABLE,NA,0,0,0,0,U,NA,NA,0,NA,5/16/2012,NA,NA,30.22527478,-81.88678962,17RMP1466344081,5533,10.64198782,FLORIDA STATE COLLEGE AT JACKSONVILLE AVIATION CENTER,V,5/14/2012,9/15/2017,5684,19,35,10
1485220100R,NA,NA,FLORIDA STATE COLLEGE AT JACKSONVILLE DEERWOOD CENTER,413,9911 OLD BAYMEADOWS RD,JACKSONVILLE,32256,DUVAL,904-381-3572,COLLEGE/UNIVERSITY,FLORIDA STATE COLLEGE AT JACKSONVILLE,STATE,PUBLIC,1983,GEOPLAN,FDOE COLLEGE 2012,NA,COLLEGE,COLLEGE,COLLEGE,NA,0,0,0,0,NA,NO INFORMATION AVAILABLE,(FORMERLY FLORIDA COMMUNITY COLLEGE CAMPUSES KENT CAMPUS),0,0,0,0,U,NA,NA,0,NA,5/16/2012,NA,NA,30.22215166,-81.553758,17RMP4671043532,1614,14.64780386,FLORIDA STATE COLLEGE AT JACKSONVILLE DEERWOOD CENTER,V,5/14/2012,9/15/2017,1471,19,35,10
0742030000R,NA,NA,FLORIDA STATE COLLEGE AT JACKSONVILLE DOWNTOWN CAMPUS,1254,101 STATE ST W,JACKSONVILLE,32202,DUVAL,904-646-2300,COLLEGE/UNIVERSITY,FLORIDA STATE COLLEGE AT JACKSONVILLE,STATE,PUBLIC,1902,GEOPLAN,NEFRPC,NA,COLLEGE,COLLEGE,COLLEGE,NA,0,0,0,0,NA,NO INFORMATION AVAILABLE,(FORMERLY FLORIDA COMMUNITY COLLEGE DOWNTOEN CAMPUS),0,0,0,0,U,NA,NA,0,NA,5/16/2012,NA,NA,30.33481311,-81.65891948,17RMP3666256070,3560,44.51665828,FLORIDA STATE COLLEGE AT JACKSONVILLE DOWNTOWN CAMPUS,V,5/14/2012,9/15/2017,3429,19,35,10
0653790000R,NA,NA,FLORIDA STATE COLLEGE AT JACKSONVILLE KENT CAMPUS,1090,3939 ROOSEVELT BLVD,JACKSONVILLE,32205,DUVAL,NA,COLLEGE/UNIVERSITY,FLORIDA STATE COLLEGE AT JACKSONVILLE,STATE,PUBLIC,1979,GEOPLAN,NEFRPC,NA,COLLEGE,COLLEGE,COLLEGE,NA,0,0,0,0,NA,NO INFORMATION AVAILABLE,(FORMERLY FLORIDA COMMUNITY COLLEGE KENT CAMPUS),0,0,0,0,U,NA,NA,0,NA,5/16/2012,NA,NA,30.29997748,-81.71891672,17RMP3087152245,3536,38.67971406,FLORIDA STATE COLLEGE AT JACKSONVILLE KENT CAMPUS,V,5/14/2012,9/15/2017,3405,19,35,10
08-2N-27-0000-0003-0010,NA,NA,FLORIDA STATE COLLEGE AT JACKSONVILLE NASSAU CENTER,2875,76346 WILLIAM BURGESS BOULEVARD,JACKSONVILLE,32097,NASSAU,904-548-4400,COLLEGE/UNIVERSITY,FLORIDA STATE COLLEGE AT JACKSONVILLE,STATE,PUBLIC,2000,GEOPLAN,GEOPLAN,NA,COLLEGE,COLLEGE,COLLEGE,NA,0,0,0,0,NA,NO INFORMATION AVAILABLE,NA,0,0,0,0,U,NA,NA,0,NA,5/16/2012,NA,NA,30.6094232,-81.62503096,17RMP4008886484,5549,102.0777201,FLORIDA STATE COLLEGE AT JACKSONVILLE NASSAU CENTER,V,5/14/2012,9/15/2017,5700,19,35,10
0200450020R,NA,NA,FLORIDA STATE COLLEGE AT JACKSONVILLE NORTH CAMPUS,4076,4501 CAPPER RD,JACKSONVILLE,32218,DUVAL,NA,COLLEGE/UNIVERSITY,FLORIDA STATE COLLEGE AT JACKSONVILLE,STATE,PUBLIC,1970,GEOPLAN,NEFRPC,NA,COLLEGE,COLLEGE,COLLEGE,NA,0,0,0,0,NA,NO INFORMATION AVAILABLE,(FORMERLY FLORIDA COMMUNITY COLLEGE NORTH CAMPUS),0,0,0,0,U,NA,NA,0,NA,5/16/2012,NA,NA,30.42926529,-81.71857196,17RMP3099566572,4569,144.7187016,FLORIDA STATE COLLEGE AT JACKSONVILLE NORTH CAMPUS,V,5/14/2012,9/15/2017,4435,19,35,10
0704520000R,NA,NA,FLORIDA STATE COLLEGE AT JACKSONVILLE OPEN CAMPUS & URBAN RESOURCE CENTER,76,601 STATE ST W,JACKSONVILLE,32202,DUVAL,NA,COLLEGE/UNIVERSITY,FLORIDA STATE COLLEGE AT JACKSONVILLE,STATE,PUBLIC,0,GEOPLAN,NEFRPC,NA,COLLEGE,COLLEGE,COLLEGE,NA,0,0,0,0,NA,NO INFORMATION AVAILABLE,(FORMERLY FLORIDA COMMUNITY COLLEGE OPEN CAMPUS),0,0,0,0,U,NA,NA,0,NA,5/16/2012,NA,NA,30.3354769,-81.66366795,17RMP3620656146,3552,2.68089419,FLORIDA STATE COLLEGE AT JACKSONVILLE OPEN CAMPUS & URBAN RESOURCE CENTER,V,5/14/2012,9/15/2017,3421,19,35,10
1654240000R,NA,NA,FLORIDA STATE COLLEGE AT JACKSONVILLE SOUTH CAMPUS,9183,11901 BEACH BLVD,JACKSONVILLE,32246,DUVAL,NA,COLLEGE/UNIVERSITY,FLORIDA STATE COLLEGE AT JACKSONVILLE,STATE,PUBLIC,1971,GEOPLAN,NEFRPC,NA,COLLEGE,COLLEGE,COLLEGE,NA,0,0,0,0,NA,NO INFORMATION AVAILABLE,(FORMERLY FLORIDA COMMUNITY COLLEGE SOUTH CAMPUS),0,0,0,0,U,NA,NA,0,NA,5/16/2012,NA,NA,30.29189875,-81.50930845,17RMP5102251241,1631,326.0023494,FLORIDA STATE COLLEGE AT JACKSONVILLE SOUTH CAMPUS,V,5/14/2012,9/15/2017,1488,19,35,10
07399-083-02,NA,NA,FLORIDA STATE FIRE COLLEGE,,11655 NW GAINESVILLE RD,OCALA,34482,MARION,352-369-2800,COLLEGE/UNIVERSITY,STATE OF FLORIDA,STATE,PUBLIC,1990,GEOPLAN,FDOE COLLEGE 2007,NA,COLLEGE,COLLEGE,COLLEGE,NA,0,0,0,0,NA,NO INFORMATION AVAILABLE,NA,0,0,0,0,U,NA,NA,0,NA,5/16/2012,NA,NA,29.32032682,-82.19514185,17RLN8395044069,418,88.31887411,FLORIDA STATE FIRE COLLEGE,V,11/6/2007,9/15/2017,336,19,35,3
2.13521E+12,134097,NA,FLORIDA STATE UNIVERSITY,12842,675 W JEFFERSON ST # 1,TALLAHASSEE,32304,LEON,850-224-3555,COLLEGE/UNIVERSITY,FLORIDA STATE UNIVERSITY,STATE,PUBLIC,1964,GEOPLAN,FDOE COLLEGE 2007,NA,COLLEGE,COLLEGE,COLLEGE,NA,0,0,0,0,NA,NO INFORMATION AVAILABLE,NA,0,0,0,0,U,NA,NA,0,NA,5/16/2012,NA,NA,30.4412727,-84.29364708,16RGU5990670795,3959,441.4904317,FLORIDA STATE UNIVERSITY,V,11/6/2007,9/15/2017,3958,19,35,5
2.11552E+12,NA,NA,FLORIDA STATE UNIVERSITY - FACILITY FOR ARTS RESEARCH,137,3216 SESSIONS RD,TALLAHASSEE,32303,LEON,NA,COLLEGE/UNIVERSITY,FLORIDA STATE UNIVERSITY,STATE,PUBLIC,2002,GEOPLAN,GEOPLAN,NA,COLLEGE,COLLEGE,COLLEGE,NA,0,0,0,0,NA,NO INFORMATION AVAILABLE,NA,0,0,0,0,NA,NA,NA,0,NA,NA,NA,NA,30.4858185,-84.31836678,16RGU5741475677,7329,4.701142,FLORIDA STATE UNIVERSITY - FACILITY FOR ARTS RESEARCH,V,7/29/2016,9/15/2017,7464,19,35,5
27019-000-000,NA,NA,FLORIDA STATE UNIVERSITY - PANAMA CITY CAMPUS,816,4750 COLLEGIATE DR,PANAMA CITY,32405,BAY,850-872-4750,COLLEGE/UNIVERSITY,FLORIDA STATE UNIVERSITY,STATE,PUBLIC,1945,GEOPLAN,GEOPLAN,NA,COLLEGE,COLLEGE,COLLEGE,NA,0,0,0,0,NA,NO INFORMATION AVAILABLE,NA,0,0,0,0,NA,NA,NA,0,NA,NA,NA,NA,30.1899531,-85.72344302,16RFU2289140523,5749,28.05832991,FLORIDA STATE UNIVERSITY - PANAMA CITY CAMPUS,V,3/29/2016,9/15/2017,5611,19,35,5
410327  B0050,NA,NA,FLORIDA STATE UNIVERSITY - SOUTHWEST CAMPUS,27210,TYSON RD,TALLAHASSEE,32310,LEON,850-645-7246,COLLEGE/UNIVERSITY,FLORIDA STATE UNIVERSITY,STATE,PUBLIC,1989,GEOPLAN,GEOPLAN,NA,COLLEGE,COLLEGE,COLLEGE,NA,0,0,0,0,NA,NO INFORMATION AVAILABLE,NA,0,0,0,0,NA,NA,NA,0,NA,NA,NA,NA,30.42024816,-84.31763628,16RGU5765768409,5751,935.4584209,FLORIDA STATE UNIVERSITY - SOUTHWEST CAMPUS,V,3/29/2016,9/15/2017,5613,19,35,5
4.1162E+12,NA,NA,FLORIDA STATE UNIVERSITY RESERVATION,,3226 FLASTACOWO RD,TALLAHASSEE,32310,LEON,850-644-2449,COLLEGE/UNIVERSITY,FLORIDA STATE UNIVERSITY,STATE,PUBLIC,1981,GEOPLAN,GEOPLAN,NA,COLLEGE,COLLEGE,COLLEGE,NA,0,0,0,0,NA,NO INFORMATION AVAILABLE,NA,0,0,0,0,NA,NA,NA,0,NA,NA,NA,NA,30.3987116,-84.3348484,16RGU5605965982,5750,39.40812225,FLORIDA STATE UNIVERSITY RESERVATION,V,3/29/2016,9/15/2017,5612,19,35,5
3.12215E+14,134112,NA,FLORIDA TECHNICAL COLLEGE,2000,12900 CHALLENGER PKWY,ORLANDO,32826,ORANGE,407-447-7300,COLLEGE/UNIVERSITY,EMERSON INVESTMENTS INTERNATIO,PRIVATE,PRIVATE,2011,GEOPLAN,ORANGE COUNTY,NA,VOTECH,VOTECH,VOTECH,NA,0,0,0,0,NA,NO INFORMATION AVAILABLE,NA,0,0,0,0,U,NA,NA,0,NA,NA,NA,NA,28.57327575,-81.19647829,17RMM8078560725,994,6.68231165,FLORIDA TECHNICAL COLLEGE,V,7/17/2007,9/15/2017,863,19,35,1
3.01721E+13,NA,NA,FLORIDA TECHNICAL COLLEGE,1989,1199 S WOODLAND BLVD,DELAND,32724,VOLUSIA,386-734-3303,COLLEGE/UNIVERSITY,RSRCA DELAND LTD,PRIVATE,PRIVATE,1978,GEOPLAN,VOLUSIA COUNTY,NA,VOTECH,VOTECH,VOTECH,NA,0,0,0,0,NA,NO INFORMATION AVAILABLE,NA,0,0,0,0,U,NA,NA,0,NA,NA,NA,NA,29.009127,-81.30079023,17RMN7070609034,697,9.00365442,FLORIDA TECHNICAL COLLEGE,V,7/3/2007,9/15/2017,719,19,35,1
3.04003E+12,476939,NA,FLORIDA VOCATIONAL INSTITUTE,467,6840 SOUTHWEST 40TH STREET,MIAMI,33155,MIAMI-DADE,NA,COLLEGE/UNIVERSITY,SC MOTA ASSOC LTD PARTNERSHIP,PRIVATE,PRIVATE,2001,GEOPLAN,NCES 2014-2015 COLLEGE,NA,COLLEGE,COLLEGE,COLLEGE,NA,106,0,0,0,NA,NO INFORMATION AVAILABLE,NA,0,0,0,0,NA,NA,NA,0,NA,NA,NA,NA,25.77379943,-80.32162606,17RNJ6802150809,6661,5.1145528,FLORIDA VOCATIONAL INSTITUTE,V,3/29/2016,9/15/2017,6825,19,35,1
3.66005E+12,480143,NA,FORTIS COLLEGE-CUTLER BAY,323,19600 S DIXIE HIGHWAY SUITE B,CUTLER BAY,33157,MIAMI-DADE,NA,COLLEGE/UNIVERSITY,19600 SOUTH DIXIE LLC,PRIVATE,PRIVATE,1994,GEOPLAN,NCES 2014-2015 COLLEGE,NA,COLLEGE,COLLEGE,COLLEGE,NA,236,0,0,0,NA,NO INFORMATION AVAILABLE,NA,0,0,0,0,NA,NA,NA,0,NA,NA,NA,NA,25.58568016,-80.36411068,17RNJ6386129955,6663,3.086429,FORTIS COLLEGE-CUTLER BAY,V,3/29/2016,9/15/2017,6827,19,35,1
16 30 05 70920 300 0901,447360,NA,FORTIS COLLEGE-LARGO,73,6565 ULMERTON ROAD,LARGO,33771,PINELLAS,727-531-5900X3412,COLLEGE/UNIVERSITY,ALLIANCE LARGO LLC,PRIVATE,PRIVATE,1970,GEOPLAN,GEOPLAN,NA,COLLEGE,COLLEGE,COLLEGE,NA,292,0,0,0,NA,NO INFORMATION AVAILABLE,NA,0,0,0,0,U,NA,NA,0,NA,NA,NA,NA,27.89471304,-82.72733702,17RLL2998486739,5448,4.08741452,FORTIS COLLEGE-LARGO,V,5/14/2012,9/15/2017,5220,19,35,1
41-04-26-019238-001-03,439792,NA,FORTIS COLLEGE-ORANGE PARK,398,560 WELLS ROAD,ORANGE PARK,32073,CLAY,NA,COLLEGE/UNIVERSITY,BRADLEY MACKIN LLC,PRIVATE,PRIVATE,1994,GEOPLAN,NCES 2014-2015 COLLEGE,NA,COLLEGE,COLLEGE,COLLEGE,NA,312,0,0,0,NA,NO INFORMATION AVAILABLE,NA,0,0,0,0,NA,NA,NA,0,NA,NA,NA,NA,30.18557505,-81.7064395,17RMP3199239560,6664,2.64977896,FORTIS COLLEGE-ORANGE PARK,V,3/29/2016,9/15/2017,6828,19,35,1
